fac_name,site_name,fac_street,fac_city,fac_state,fac_zip,naics_code,latitude,longitude,pollutant_code,pollutant_desc,pollutant_type,emissions_uom,emissions
FOSTER FARMS,FOSTER FEED SALES,11245 SWANSON RD,BURREL,CA,93607,311119,36.49369,-119.99494,SO2,Sulfur Dioxide,CAP,TON,0.00986
FOWLER DEHYDRATOR,FOWLER DEHYDRATOR,726 S 8TH ST,FOWLER,CA,93625,115114,36.621001,-119.672997,SO2,Sulfur Dioxide,CAP,TON,12.1586
FRESNO BEE,FRESNO BEE,1626 E ST,FRESNO,CA,93786,513110,36.73608,-119.802774,SO2,Sulfur Dioxide,CAP,TON,4.72e-6
FRESNO/CLOVIS REGIONAL WWTP,FRESNO/CLOVIS REGIONAL WWTP,5607 W JENSEN AVE,FRESNO,CA,93706,221320,36.703,-119.893,SO2,Sulfur Dioxide,CAP,TON,1.2832283
GILLS TEXACO,GILLS TEXACO,2459 TAHOE ST,CARUTHERS,CA,93609,457120,36.540047,-119.835783,SO2,Sulfur Dioxide,CAP,TON,0.00936444
GRANITE CONSTRUCTION COMPANY/ENV MGR,"GRANITE CONSTRUCTION, COALINGA",38940 HIGHWAY 33,COALINGA,CA,93210,324121,36.167493,-120.36422,SO2,Sulfur Dioxide,CAP,TON,1.952865
GRUNDFOS PUMPS MANUFACTURING CORPORATION,GRUNDFOS PUMPS CORPORATION,5900 E SHIELDS AVE,FRESNO,CA,93727,333914,36.779164,-119.68692,SO2,Sulfur Dioxide,CAP,TON,6.8141e-4
"H&R GUNLUND RANCHES, INC","H & R GUNLUND RANCHES, INC",3675 W SAGINAW AVE,CARUTHERS,CA,93609,115114,36.552228,-119.8569,SO2,Sulfur Dioxide,CAP,TON,0.3174054
ONEILL BEVERAGES CO LLC,ONEILL BEVERAGES CO LLC,8418 S LAC JAC AVE,PARLIER,CA,93648,312130,36.612452,-119.484102,SO2,Sulfur Dioxide,CAP,TON,0.14598444
CALMAT DBA VULCAN MATERIALS COMPANY,CALMAT DBA VULCAN MATERIALS COMPANY,17041 E KINGS CANYON RD,SANGER,CA,93657,324121,36.728017,-119.485757,SO2,Sulfur Dioxide,CAP,TON,0.0406
IRS-FRESNO SERVICE CENTER,IRS-FRESNO SERVICE CENTER,5045 E BUTLER AVE,FRESNO,CA,93727,921190,36.730437,-119.724742,SO2,Sulfur Dioxide,CAP,TON,0.0127794
KAISER PERMANENTE MED CENTER,KAISER PERMANENTE MED CENTER,7300 N FRESNO ST,FRESNO,CA,93720,622110,36.842331,-119.783042,SO2,Sulfur Dioxide,CAP,TON,0.0050266
"LION RAISINS, INC.","LION RAISINS, INC.",9400 S DEWOLF,SELMA,CA,93662,311119,36.593135,-119.646539,SO2,Sulfur Dioxide,CAP,TON,1.072
LONE STAR DEHYDRATOR,LONE STAR DEHYDRATOR,2730 S DEWOLF,SANGER,CA,93657,115114,36.696658,-119.645638,SO2,Sulfur Dioxide,CAP,TON,0.0232
LOS GATOS TOMATO PRODUCTS,LOS GATOS TOMATO PRODUCTS,19800 GALE AVE,HURON,CA,93234,311421,36.182981,-120.15343,SO2,Sulfur Dioxide,CAP,TON,0.30599
GRUMA CORPORATION/MISSION FOODS,GRUMA CORPORATION,2849 E EDGAR AVE,FRESNO,CA,93706,311824,36.696381,-119.780897,SO2,Sulfur Dioxide,CAP,TON,0.011972
OLAM WEST COAST INC,OLAM WEST COAST INC,1175 S 19TH AVE,LEMOORE,CA,93245,311422,36.274195,-119.800337,SO2,Sulfur Dioxide,CAP,TON,0.04402963
HOLMES WESTERN OIL CORPORATION,HOLMES WESTERN OIL CORPORATION,PYRAMID HILLS LEASE,KINGS COUNTY,CA,93204,211120,35.794371,-120.012746,SO2,Sulfur Dioxide,CAP,TON,0.00711
CITY OF HANFORD WASTEWATER FACILITY,CITY OF HANFORD WASTEWATER FACILITY,10555 HOUSTON AVE,HANFORD,CA,93230,561790,36.298442,-119.64913,SO2,Sulfur Dioxide,CAP,TON,0.1005758
NAS LEMOORE,NAS LEMOORE,NAVAL AIR STATION LEMOORE,LEMOORE,CA,93245,928110,36.260954,-119.90135,SO2,Sulfur Dioxide,CAP,TON,0.001364
CALIF STATE PRISON - CORCORAN,CALIF STATE PRISON - CORCORAN,4001 KING AVE,CORCORAN,CA,93212,922140,36.09852,-119.55996,SO2,Sulfur Dioxide,CAP,TON,0.9305686
HANFORD MALL,HANFORD MALL,1675 W LACEY BLVD,HANFORD,CA,93230,531120,36.327838,-119.67193,SO2,Sulfur Dioxide,CAP,TON,1.25e-5
TRI-COUNTIES WALNUT CO,TRI-COUNTIES WALNUT CO,10493 13TH AVE,HANFORD,CA,93230,115114,36.322019,-119.690806,SO2,Sulfur Dioxide,CAP,TON,0.3822
AT&T MOBILITY - EH&S,AT&T MOBILITY,9887 FLINT AVE - USID 9663,HANFORD,CA,93230,517112,36.369152,-119.625996,SO2,Sulfur Dioxide,CAP,TON,5.96e-6
AT&T MOBILITY - EH&S,AT&T MOBILITY,28434 MILHAM ST - USID 9659,KETTLEMAN CITY,CA,93239,517111,36.00965,-119.982031,SO2,Sulfur Dioxide,CAP,TON,6.3468e-5
AT&T MOBILITY - EH&S,AT&T MOBILITY,1550 GLENDALE - USID 9660,HANFORD,CA,95827,517111,36.320346,-119.670792,SO2,Sulfur Dioxide,CAP,TON,1.563e-5
DEL MONTE FOODS HANFORD PLANT 24,DEL MONTE FOODS HANFORD PLANT 24,10652 JACKSON AVE,HANFORD,CA,93230,311421,36.250526,-119.652689,SO2,Sulfur Dioxide,CAP,TON,0.6581825
COUNTY LINE GIN,COUNTY LINE GIN,12095 SECOND AVE,HANFORD,CA,93230,115111,36.295236,-119.49196,SO2,Sulfur Dioxide,CAP,TON,0.00435
CROSS CREEK GINNING CO.,CROSS CREEK GINNING CO.,10TH AND ORANGE AVE,CORCORAN,CA,93212,115111,36.106689,-119.636084,SO2,Sulfur Dioxide,CAP,TON,0.0566
"MRP SAN JOAQUIN ENERGY, LLC, HENRIETTA PEAKER PLANT","MRP SAN JOAQUIN ENERGY, LLC",16027 25TH AVE,LEMOORE,CA,93245,333611,36.24002,-119.90431,SO2,Sulfur Dioxide,CAP,TON,0.05393774
LEPRINO FOODS COMPANY,LEPRINO FOODS COMPANY,350 N BELL HAVEN DR,LEMOORE,CA,93245,311513,36.300931,-119.811937,SO2,Sulfur Dioxide,CAP,TON,1.2445408
"MRP SAN JOAQUIN ENERGY, LLC, HANFORD ENERGY PARK PEAKER PLAN","MRP SAN JOAQUIN ENERGY, LLC",10596 IDAHO AVE-HANFORD ENERGY PARK PEAKER PLANT,HANFORD,CA,93230,221118,36.2704,-119.6474,SO2,Sulfur Dioxide,CAP,TON,0.03440625
WEST ISLAND COTTON GROWERS INC,WEST ISLAND COTTON GROWERS INC,20509 ELGIN AVE,LEMOORE,CA,93245,115111,36.381787,-119.823879,SO2,Sulfur Dioxide,CAP,TON,0.0173
J G BOSWELL COMPANY,J G BOSWELL COMPANY OIL MILL,710 BAINUM AVE,CORCORAN,CA,93212,311211,36.092,-119.554,SO2,Sulfur Dioxide,CAP,TON,0.1973491
KINGS COUNTY PUBLIC WORKS DEPT,KINGS COUNTY PUBLIC WORKS DEPT,1400 W LACEY BLVD,HANFORD,CA,93230,921190,36.328238,-119.666665,SO2,Sulfur Dioxide,CAP,TON,4.2562e-4
NICHOLS PISTACHIO,NICHOLS PISTACHIO,13762 1ST AVE,HANFORD,CA,93230,111335,36.27033,-119.47641,SO2,Sulfur Dioxide,CAP,TON,0.03521592
AMBAY ENTERPRISE INC,AMBAY ENTERPRISE INC,342 FOX ST,LEMOORE,CA,93245,457120,36.302051,-119.786443,SO2,Sulfur Dioxide,CAP,TON,0.00936444
PG&E ENVIRONMENTAL SERVICES,PG & E CO -KETTLEMAN COMPRESSOR STATION,34453 PLYMOUTH AVE,AVENAL,CA,93204,486210,36.073141,-120.083124,SO2,Sulfur Dioxide,CAP,TON,0.0668285
PRISON INDUSTRY AUTHORITY-AVENAL,PRISON INDUSTRY AUTHORITY--AVENAL,1 KINGS WAY,AVENAL,CA,93204,922140,36.002537,-120.137785,SO2,Sulfur Dioxide,CAP,TON,1.077e-5
PRISON INDUSTRY AUTHORITY-CORCORAN,PRISON INDUSTRY AUTHORITY-CORCORAN,4001 KING AVE,CORCORAN,CA,93212,922140,36.060219,-119.55287,SO2,Sulfur Dioxide,CAP,TON,7.28e-6
BARRETTS LANDING WAREHOUSE,BARRETTS LANDING WAREHOUSE,8666 MILLERS LANDING RD,GRIMES,CA,95950,115114,38.956294,-121.840189,SO2,Sulfur Dioxide,CAP,TON,0.0012
STRAIN RANCHES INC.,STRAIN RANCHES INC.,1492 STRAIN LANE-WEST HAHN RD,ARBUCKLE,CA,95912,115114,39.05625,-122.10429,SO2,Sulfur Dioxide,CAP,TON,0.0029481
OLD COUNTRY MILLWORK INC,OLD COUNTRY MILLWORK INC,1212 E 58TH PL,LOS ANGELES,CA,90001,332812,33.98819,-118.25367,SO2,Sulfur Dioxide,CAP,TON,0.0043
PARADISE IRRIGATION DISTRICT,PARADISE IRRIGATION DISTRICT - MAGALIA,13888 PINE NEEDLE DRIVE,MAGALIA,CA,95954,221310,39.814572,-121.580947,SO2,Sulfur Dioxide,CAP,TON,0.002
CHICO BROADCASTING INC,"CHICO BROADCASTING, INC.",11045 COHASSET ROAD,CHICO,CA,95926,517112,39.982,-121.701,SO2,Sulfur Dioxide,CAP,TON,0.02
"STRATAS FOODS, LLC","STRATAS FOODS, LLC",3370 S CHESTNUT AVE,FRESNO,CA,93725,311225,36.685324,-119.736479,SO2,Sulfur Dioxide,CAP,TON,0.1307124
PENNY WISE,PENNY WISE,1536 E BELMONT AVE,FRESNO,CA,93701,457120,36.750263,-119.792532,SO2,Sulfur Dioxide,CAP,TON,0.00936444
PACIFIC GINNING COMPANY LLC,PACIFIC GINNING COMPANY LLC,HIGHWAY 33 & NEBRASKA,CANTUA CREEK,CA,93608,115111,36.557871,-120.389011,SO2,Sulfur Dioxide,CAP,TON,0.0229
CLEARLAKE LAVA,HIDDEN VALLEY SAND AND GRAVEL,4.5 MILES E. OF HWY20/53 JUNCT,CLEARLAKE OAKS,CA,95423,212321,38.999361,-122.556414,SO2,Sulfur Dioxide,CAP,TON,0.153
JONES MORTUARY,JONES MORTUARY,115 S. MAIN STREET,LAKEPORT,CA,95453,812220,39.04191,-122.91552,SO2,Sulfur Dioxide,CAP,TON,0.01
LAKE COUNTY ANIMAL CONTROL,LAKE COUNTY ANIMAL CONTROL,4949 Helbush Drive,LAKEPORT,CA,95453,812220,39.034,-122.923,SO2,Sulfur Dioxide,CAP,TON,0.021
"PARNUM PAVING, INC",CLEARLAKE LAVA,HIGHWAY 29,MIDDLETOWN,CA,95451,212321,38.987656,-122.845322,SO2,Sulfur Dioxide,CAP,TON,0.009
POINT LAKEVIEW ROCK & REDIMIX,POINT LAKEVIEW ROCK & REDIMIX,13329 PT. LAKEVIEW ROAD,LOWER LAKE,CA,95457,212319,38.9222,-122.6665,SO2,Sulfur Dioxide,CAP,TON,0.596
SUTTER LAKESIDE HOSPITAL,SUTTER LAKESIDE HOSPITAL,5176 HILL ROAD EAST,LAKEPORT,CA,95453,621340,39.102495,-122.910004,SO2,Sulfur Dioxide,CAP,TON,1.78
ADVENTIST HEALTH HOSPITAL,ST. HELENA HOSPITAL CLEARLAKE,18TH AVE & HWY 53,CLEARLAKE,CA,95422,621340,38.93687,-122.62243,SO2,Sulfur Dioxide,CAP,TON,18.084
CLEARLAKE LAVA,CLEARLAKE LAVA - UPPER PLANT,14752 E. HWY 20,CLEARLAKE OAKS,CA,95423,212319,39.01219,-122.631467,SO2,Sulfur Dioxide,CAP,TON,0.469
CLEARLAKE REDI-MIX,CLEARLAKE REDI-MIX - FINLEY,3740 FINLEY ROAD EAST,FINLEY,CA,95435,212321,39.0037,-122.8509,SO2,Sulfur Dioxide,CAP,TON,0.014
CLEARLAKE REDI-MIX,CLEARLAKE REDI-MIX/LAKEPORT,99 SODA BAY ROAD,LAKEPORT,CA,95453,327320,39.01,-122.9098,SO2,Sulfur Dioxide,CAP,TON,0.226
"COUNTY OF LAKE, FMD","COUNTY OF LAKE, FMD",255 N. FORBES STREET,LAKEPORT,CA,95453,921190,39.04367,-122.91648,SO2,Sulfur Dioxide,CAP,TON,0.005
MR. LASSEN POWER,MT. LASSEN POWER,LASSEN COUNTY RD. A21,WESTWOOD,CA,96137,221122,40.297,-121.018,SO2,Sulfur Dioxide,CAP,TON,4.2
UNIVERSITY OF CALIFORNIA MERCED,UNIVERSITY OF CALIFORNIA MERCED,5200 N LAKE RD,MERCED,CA,95340,611310,37.36631,-120.424572,SO2,Sulfur Dioxide,CAP,TON,0.0442344
RIO HONDO COMMUNITY COLLEGE,RIO HONDO COMMUNITY COLLEGE,3600  WORKMAN MILL RD,WHITTIER,CA,90601,611210,34.00993,-118.03099,SO2,Sulfur Dioxide,CAP,TON,0.0400042
MM WEST COVINA LLC,MM WEST COVINA LLC,2210 S AZUSA AVE,WEST COVINA,CA,91792,221112,34.033443,-117.906284,SO2,Sulfur Dioxide,CAP,TON,0.010501
KAISER FOUNDATION HOSP,KAISER FOUNDATION HOSP,6041  CADILLAC AVE,LOS ANGELES,CA,90034,622110,34.02997,-118.37102,SO2,Sulfur Dioxide,CAP,TON,0.0230693
ECO SERVICES OPERATIONS CORP.,ECO SERVICES OPERATIONS CORP.,20720 S WILMINGTON AVE,CARSON,CA,90810,325998,33.842507,-118.235343,SO2,Sulfur Dioxide,CAP,TON,15.4969118
PRESBYTERIAN INTERCOMMUNITY HOSP,PRESBYTERIAN INTERCOMMUNITY HOSP,12401 E WASHINGTON BLVD,WHITTIER,CA,90602,622110,33.96861,-118.0484,SO2,Sulfur Dioxide,CAP,TON,0.0325713
BEST CONTRACTING SERVICES INC,BEST CONTRACTING SERVICES INC,VARIOUS LOCATIONS IN SCAQMD,GARDENA,CA,90248,238160,33.8558,-118.2863,SO2,Sulfur Dioxide,CAP,TON,0.00338075
VERIZON WIRELESS,VERIZON WIRELESS,14230 S HILLSDALE AVE,SANTA NELLA,CA,95322,517112,37.081043,-120.99413,SO2,Sulfur Dioxide,CAP,TON,2.937e-6
VERIZON WIRELESS- COTTONWOOD,VERIZON WIRELESS - COTTONWOOD,32190 COTTONWOOD RD,GUSTINE,CA,95322,517112,37.195155,-121.07559,SO2,Sulfur Dioxide,CAP,TON,4.66e-8
LUBECO INC,LUBECO INC,6859  DOWNEY AVE,LONG BEACH,CA,90805,324191,33.879946,-118.151357,SO2,Sulfur Dioxide,CAP,TON,5.34e-4
FARMERS RICE COOP,FARMERS RICE DRYER #1,4937 HWY 45,COLUSA,CA,95932,311212,39.33051,-122.03351,SO2,Sulfur Dioxide,CAP,TON,0.0026439
CALIFORNIA FAMILY FOODS LLC.,CALIFORNIA FAMILY FOODS LLC.,6551 STRUCKMEYER RD.,ARBUCKLE,CA,95912,311212,39.04341,-122.07556,SO2,Sulfur Dioxide,CAP,TON,0.0025923
"DE PUE WAREHOUSE COMPANY, INC.",DEPUE CORTINA DRYER,3334 HIGHWAY 99W,WILLIAMS,CA,95987,115114,39.16115,-122.15505,SO2,Sulfur Dioxide,CAP,TON,0.0055439
COLUSA RICE COMPANY,COLUSA RICE COMPANY NIAGARA,2889 NIAGARA AVE.,COLUSA,CA,95932,115114,39.17788,-121.99277,SO2,Sulfur Dioxide,CAP,TON,0.0025548
"DE PUE WAREHOUSE COMPANY, INC.",DEPUE HAAS DRYER,5656 HAAS ROAD,WILLIAMS,CA,95987,115114,39.18843,-122.18946,SO2,Sulfur Dioxide,CAP,TON,0.00173895
"ACC-GWG, LLC.","ACC-GWG, LLC.",6133 ABEL ROAD,WILLIAMS,CA,95987,311212,39.15162,-122.08572,SO2,Sulfur Dioxide,CAP,TON,0.0010821
PACIFIC GAS & ELECTRIC CO.,PG&E DELEVAN COMPRESSOR STATIO,5001 DELEVAN RD,MAXWELL,CA,95955,486210,39.3691,-122.25703,SO2,Sulfur Dioxide,CAP,TON,0.03485482462
"DE PUE WAREHOUSE COMPANY, INC.",DEPUE CHENEY DRYER,1700 E STREET,WILLIAMS,CA,95987,115114,39.15214,-122.15515,SO2,Sulfur Dioxide,CAP,TON,1.671e-4
WADHAM ENERGY CO INC,WADHAM ENERGY LTD PARTNERSHIP,6247 MYERS ROAD,WILLIAMS,CA,95987,221118,39.1055,-122.1104,SO2,Sulfur Dioxide,CAP,TON,67.1115761
ERDMAN WHSE. INC.,ERDMAN WAREHOUSE INC.,8661 CERES AVENUE,KNIGHTS LANDING,CA,95645,115114,38.951067,-121.83884,SO2,Sulfur Dioxide,CAP,TON,0.0035
"THE FOOTHILL WAREHOUSE CO.,LLC",THE FOOTHILL WAREHOUSE,2005 HUSTED RD,WILLIAMS,CA,95987,115114,39.101974,-122.13469,SO2,Sulfur Dioxide,CAP,TON,0.001911
CHRISMAN ESTATE COMPANY,CHRISMAN DRYER,484 B STREET,WILLIAMS,CA,95987,115114,39.16115,-122.15505,SO2,Sulfur Dioxide,CAP,TON,1.698e-4
MORNING STAR PACKING COMPANY,MORNING STAR PACKING COMPANY,2211 OLD HWY 99,WILLIAMS,CA,95987,221118,39.1264,-122.1251,SO2,Sulfur Dioxide,CAP,TON,0.619920606
PACIFIC BELL,PACIFIC BELL,2600 CAMINO RAMON,SAN RAMON,CA,94583,518210,37.769,-121.96141,SO2,Sulfur Dioxide,CAP,TON,4.1809e-5
MT. SAN ANTONIO COMMUNITY COLLEGE,MT. SAN ANTONIO COMMUNITY COLLEGE,1100 N GRAND AVE BLDG 60 #1,WALNUT,CA,91789,611210,34.0482,-117.84512,SO2,Sulfur Dioxide,CAP,TON,0.013336494
"CAL ST, POLYTECHNIC UNIV, POMONA","CAL ST, POLYTECHNIC UNIV, POMONA",3801 W TEMPLE AVE,POMONA,CA,91768,611310,34.04888,-117.81389,SO2,Sulfur Dioxide,CAP,TON,0.0226696426
CAL INST OF TECH,CAL INST OF TECH,650 S WILSON,PASADENA,CA,91106,611310,34.1353,-118.12765,SO2,Sulfur Dioxide,CAP,TON,3.6769196845
HITCO CARBON COMPOSITES INC,HITCO CARBON COMPOSITES INC,1551 W 139TH ST,GARDENA,CA,90249,336419,33.909165,-118.305101,SO2,Sulfur Dioxide,CAP,TON,0.0433001
ANADITE INC,ANADITE INC,10647  GARFIELD AVE,SOUTH GATE,CA,90280,332812,33.93201,-118.16772,SO2,Sulfur Dioxide,CAP,TON,0.0010038
PROVIDENCE ST JOSEPH MED CTR,PROVIDENCE ST JOSEPH MED CTR,501 S BUENA VISTA ST,BURBANK,CA,91505,622110,34.15621,-118.32845,SO2,Sulfur Dioxide,CAP,TON,0.02014285
THE J PAUL GETTY TRUST,THE J PAUL GETTY TRUST,1200  GETTY CENTER DR,LOS ANGELES,CA,90049,611699,34.079,-118.47512,SO2,Sulfur Dioxide,CAP,TON,0.01757645056
THE TERMO COMPANY,THE TERMO COMPANY,1 MI NORTH TAMPA AVE,NORTHRIDGE,CA,91324,424720,34.23982,-118.549191,SO2,Sulfur Dioxide,CAP,TON,0.001273
THE TERMO CO,THE TERMO CO,31000  HASLEY CANYON RD,CASTAIC,CA,91384,211130,34.47587,-118.67771,SO2,Sulfur Dioxide,CAP,TON,8.44e-4
TEASDALE FOODS INC,TEASDALE FOODS INC,901 PACKERS ST,ATWATER,CA,95301,311421,37.346486,-120.605404,SO2,Sulfur Dioxide,CAP,TON,2.045694
SAPUTO DAIRY FOODS USA LLC,SAPUTO DAIRY FOODS USA LLC,299 FIFTH AVE,GUSTINE,CA,95322,311514,37.255474,-120.996591,SO2,Sulfur Dioxide,CAP,TON,0.2210247
FOSTER FARMS/ENV AFFAIRS MGR,FOSTER FOOD PRODUCTS,843 DAVIS ST,LIVINGSTON,CA,95334,311615,37.390292,-120.726348,SO2,Sulfur Dioxide,CAP,TON,5.49910082
KODA FARMS INC,"KODA FARMS, INC.",22540 RUSSELL AVE,SOUTH DOS PALOS,CA,93620,311212,36.959932,-120.653659,SO2,Sulfur Dioxide,CAP,TON,0.0012212
MORNING STAR PACKING COMPANY,MORNING STAR PACKING COMPANY,13448 S VOLTA RD,LOS BANOS,CA,93635,311421,37.0945,-120.9255,SO2,Sulfur Dioxide,CAP,TON,1.59945187
"LOS BANOS FOODS, INC","CALIFORNIA DAIRIES, INC",1155 E PACHECO BLVD,LOS BANOS,CA,93635,311514,37.056732,-120.839632,SO2,Sulfur Dioxide,CAP,TON,0.3311279
CAL ST UNIV NORTHRIDGE,CAL ST UNIV NORTHRIDGE,18111  NORDHOFF ST,NORTHRIDGE,CA,91330,611310,34.235511,-118.52864,SO2,Sulfur Dioxide,CAP,TON,0.0238801945
"NATVAR, A TEKNI PLEX COMPANY INC","NATVAR, A TEKNI PLEX COMPANY INC",19555 E ARENTH AVE,CITY OF INDUSTRY,CA,91748,326199,34.00018,-117.8772,SO2,Sulfur Dioxide,CAP,TON,1.05e-4
"PABCO BLDG PRODUCTS LLC,PABCO PAPER, DBA","PABCO BLDG PRODUCTS LLC,PABCO PAPER, DBA",4460  PACIFIC BLVD,VERNON,CA,90058,322130,34.003829,-118.22816,SO2,Sulfur Dioxide,CAP,TON,0.11467
PACKAGING CORPORATION OF AMERICA,PACKAGING CORPORATION OF AMERICA,4240  BANDINI BLVD,LOS ANGELES,CA,90023,322211,34.002038,-118.186441,SO2,Sulfur Dioxide,CAP,TON,0.01
QUALITY FINISHING INC,QUALITY FINISHING INC,12109  BRANFORD ST STE D6,SUN VALLEY,CA,91352,332812,34.25387,-118.39798,SO2,Sulfur Dioxide,CAP,TON,0.001938
SO CAL GAS CO/PLAYA DEL REY STORAGE FAC,SO CAL GAS CO/PLAYA DEL REY STORAGE FAC,8141  GULANA AVE,PLAYA DEL REY,CA,90293,221210,33.9627,-118.438,SO2,Sulfur Dioxide,CAP,TON,0.0196317114
MERLE NORMAN COSMETICS INC,MERLE NORMAN COSMETICS INC,9130  BELLANCA AVE,LOS ANGELES,CA,90045,325620,33.95348,-118.380454,SO2,Sulfur Dioxide,CAP,TON,5.934e-4
LIBERTY PACKING CO - THE MORNING STAR CO,LIBERTY PACKING CO - THE MORNING STAR CO,12045 S INGOMAR GRADE,LOS BANOS,CA,93635,115114,37.113056,-120.94246,SO2,Sulfur Dioxide,CAP,TON,2.68444189
LEHIGH HANSON WEST REGION,CALAVERAS MATERIALS INC.,12523 N HIGHWAY 59,MERCED,CA,95348,324121,37.40858,-120.42954,SO2,Sulfur Dioxide,CAP,TON,0.1979449
"VULCAN MATERIALS, ATTN: ENVIRONMENTAL DEPT","TRIANGLE ROCK PRODUCTS, LLC",22101 SUNSET AVE,LOS BANOS,CA,93635,324121,37.027604,-120.892487,SO2,Sulfur Dioxide,CAP,TON,1.71e-4
SANTA FE AGGREGATES INC,"SANTA FE AGGREGATES, INC.",11650 N SHAFFER RD,WINTON,CA,95388,324121,37.4584,-120.596,SO2,Sulfur Dioxide,CAP,TON,0.1770025
DOMS ELECTRIC,DOMS ELECTRIC,551 S HIGHWAY 59,MERCED,CA,95340,335312,37.27912,-120.48583000000001,SO2,Sulfur Dioxide,CAP,TON,5.85e-4
CITY OF LOS BANOS PUBLIC WORKS,CITY OF LOS BANOS,1717 W PACHECO BLVD,LOS BANOS,CA,93635,921190,37.056664,-120.883393,SO2,Sulfur Dioxide,CAP,TON,8.61e-6
"SAFEWAY INC, MERCED GROCERY PLANT","SAFEWAY, INC.",2761 COOPER AVE,MERCED,CA,95348,311212,37.315312,-120.52096,SO2,Sulfur Dioxide,CAP,TON,0.0394
CITY OF LOS BANOS,CITY OF LOS BANOS,411 MADISON AVE,LOS BANOS,CA,93635,221310,37.053045,-120.853951,SO2,Sulfur Dioxide,CAP,TON,2.195e-7
CITY OF LOS BANOS,CITY OF LOS BANOS,1630 SAN LUIS ST (WELL #7),LOS BANOS,CA,93635,221310,37.062001,-120.829997,SO2,Sulfur Dioxide,CAP,TON,1.7471e-6
CITY OF LOS BANOS,CITY OF LOS BANOS,901 COLORADO AVE(WELL 6),LOS BANOS,CA,93635,221310,37.062641,-120.865697,SO2,Sulfur Dioxide,CAP,TON,6.45e-6
CITY OF LOS BANOS,CITY OF LOS BANOS,909 WILLMOTT AVE,LOS BANOS,CA,93635,221310,37.069064,-120.841963,SO2,Sulfur Dioxide,CAP,TON,6.84e-8
CITY OF LOS BANOS,CITY OF LOS BANOS,1558 PLACE RD,LOS BANOS,CA,93635,921190,37.052938,-120.826324,SO2,Sulfur Dioxide,CAP,TON,1.185e-6
BLOSS MEMORIAL HEALTHCARE DIST,BLOSS MEMORIAL HEALTHCARE DIST,3605 HOSPITAL RD,ATWATER,CA,95301,622110,37.364707,-120.576869,SO2,Sulfur Dioxide,CAP,TON,4.14e-4
DELHI COUNTY WATER DISTRICT,DELHI COUNTY WATER DISTRICT,NE CORNER SWANSON RD X FLOWER ST,DELHI,CA,95315,221310,37.441297,-120.78989,SO2,Sulfur Dioxide,CAP,TON,7.65e-6
APEX DRUM CO INC,APEX DRUM CO INC,6202  & 6226 FERGUSON DR,LOS ANGELES,CA,90022,811310,34.029427,-118.150505,SO2,Sulfur Dioxide,CAP,TON,0.0023533
NASA JET PROPULSION LAB,NASA JET PROPULSION LAB,4800  OAK GROVE DR,PASADENA,CA,91109,927110,34.185012,-118.174528,SO2,Sulfur Dioxide,CAP,TON,0.03101324
CHIQUITA CANYON LLC,CHIQUITA CANYON LLC,29201  HENRY MAYO DR,CASTAIC,CA,91384,562212,34.4281,-118.6466,SO2,Sulfur Dioxide,CAP,TON,6.72
"ANEMOSTAT-WEST, A MESTEK CO","ANEMOSTAT-WEST, A MESTEK CO",1220  WATSON CENTER RD,CARSON,CA,90745,334512,33.81958,-118.25175,SO2,Sulfur Dioxide,CAP,TON,0.0013
BEVERLY HOSPITAL,BEVERLY HOSPITAL,309 W BEVERLY BLVD,MONTEBELLO,CA,90640,622110,34.015995,-118.100536,SO2,Sulfur Dioxide,CAP,TON,0.0087925
"HRL LABORATORIES, LLC","HRL LABORATORIES, LLC",3011  MALIBU CANYON RD,MALIBU,CA,90265,541715,34.04313,-118.69566,SO2,Sulfur Dioxide,CAP,TON,0.050826754
PARK LA BREA,PARK LA BREA,5940  COLGATE AVE,LOS ANGELES,CA,90036,531110,34.070787,-118.356277,SO2,Sulfur Dioxide,CAP,TON,0.078533586
NORTHRIDGE HOSPITAL MEDICAL CENTER,NORTHRIDGE HOSPITAL MEDICAL CENTER,18300  ROSCOE BLVD,NORTHRIDGE,CA,91325,622110,34.2202,-118.53366,SO2,Sulfur Dioxide,CAP,TON,0.017524
LOS ANGELES TIMES COMMUNICATIONS LLC,LOS ANGELES TIMES COMMUNICATIONS LLC,2000 E 8TH ST,LOS ANGELES,CA,90021,513110,34.029752,-118.238545,SO2,Sulfur Dioxide,CAP,TON,0.003481649
MEGGITT (NORTH HOLLYWOOD) INC,MEGGITT (NORTH HOLLYWOOD) INC,12838  SATICOY,NORTH HOLLYWOOD,CA,91605,334519,34.20564,-118.41211,SO2,Sulfur Dioxide,CAP,TON,1.75188e-4
CHICO CEMETERY ASSOCIATION,CHICO CEMETERY ASSOCIATION,881 MANGROVE AVENUE,CHICO,CA,95926,812220,39.737669,-121.837259,SO2,Sulfur Dioxide,CAP,TON,0.064
CALIFORNIA DEPARTMENT OF FORESTRY & FIRE,CAL FIRE STATION #63,176 NELSON AVE,OROVILLE,CA,95965,922160,39.524256,-121.569761,SO2,Sulfur Dioxide,CAP,TON,0.004
CHICO MEMORIAL MAUSOLEUM,CHICO MEMORIAL MAUSOLEUM,680 CAMELLIA WAY,CHICO,CA,95926,812220,39.734536,-121.837557,SO2,Sulfur Dioxide,CAP,TON,0.021
GRANITE CONSTRUCTION CO,GRANITE CONSTRUCTION CO,1544 STANLEY BOULEVARD,PLEASANTON,CA,94566,237310,37.67243,-121.81903,SO2,Sulfur Dioxide,CAP,TON,0.007456212
PACIFIC BELL,PACIFIC BELL,2100 CENTRAL AVENUE,ALAMEDA,CA,94501,517111,37.766841,-122.249721,SO2,Sulfur Dioxide,CAP,TON,3.7761e-5
PACIFIC BELL,PACIFIC BELL,1612 SOLANO AVENUE,ALBANY,CA,94707,517111,37.891076,-122.284582,SO2,Sulfur Dioxide,CAP,TON,2.1982e-5
PACIFIC BELL,PACIFIC BELL,2116 BANCROFT WAY,BERKELEY,CA,94704,517111,37.867711,-122.267856,SO2,Sulfur Dioxide,CAP,TON,3.9285e-5
PACIFIC BELL,PACIFIC BELL,1880 DEPOT COURT,HAYWARD,CA,94545,517111,37.638433,-122.101789,SO2,Sulfur Dioxide,CAP,TON,2.6117e-5
PACIFIC BELL,PACIFIC BELL,1129 B STREET,HAYWARD,CA,94541,517111,37.674411,-122.080445,SO2,Sulfur Dioxide,CAP,TON,4.4399e-5
PACIFIC BELL,PACIFIC BELL,1587 FRANKLIN STREET,OAKLAND,CA,94612,517111,37.806018,-122.269477,SO2,Sulfur Dioxide,CAP,TON,3.58373e-4
PACIFIC BELL,PACIFIC BELL,2112 FRUITVALE AVE,OAKLAND,CA,94601,517111,37.784221,-122.222426,SO2,Sulfur Dioxide,CAP,TON,2.1111e-5
PACIFIC BELL,PACIFIC BELL,479 45TH STREET,OAKLAND,CA,94609,517111,37.83336,-122.263082,SO2,Sulfur Dioxide,CAP,TON,6.0614e-5
PACIFIC BELL,PACIFIC BELL,2810 MOUNTAIN BLVD,OAKLAND,CA,94602,517111,37.811856,-122.198415,SO2,Sulfur Dioxide,CAP,TON,7.2802e-5
PACIFIC BELL,PACIFIC BELL,120 RAY STREET,PLEASANTON,CA,94566,517111,37.663023,-121.871223,SO2,Sulfur Dioxide,CAP,TON,3.5367e-5
PACIFIC BELL,PACIFIC BELL,15125 HESPERIAN BLVD,SAN LEANDRO,CA,94578,517111,37.700195,-122.129936,SO2,Sulfur Dioxide,CAP,TON,3.0144e-5
PACIFIC BELL,PACIFIC BELL,118 E STREET,UNION CITY,CA,94587,517111,37.604306,-122.018819,SO2,Sulfur Dioxide,CAP,TON,8.8472e-5
MORGAN ADVANCED CERAMICS,MORGAN ADVANCED CERAMICS,2425 WHIPPLE ROAD,HAYWARD,CA,94544,327110,37.60615,-122.06035,SO2,Sulfur Dioxide,CAP,TON,1.97724e-4
"LOWES HIW, INC ,CORPORATE PAYABLES","LOWES HIW, INC ,CORPORATE PAYABLES",4255 1ST STREET,LIVERMORE,CA,94550,444110,37.695159,-121.745935,SO2,Sulfur Dioxide,CAP,TON,2.7412e-5
DUBLIN SAN RAMON SERVICES DISTRICT - WASTEWATER TP,DUBLIN SAN RAMON SERVICES DISTRICT - WASTEWATER TP,7399 JOHNSON DRIVE,PLEASANTON,CA,94588,221320,37.688442,-121.913777,SO2,Sulfur Dioxide,CAP,TON,1.390269148
DCT 5800 COLISEUM LLC,KAISER PERMANENTE,5800 COLISEUM WAY,OAKLAND,CA,94621,622110,37.760529,-122.210674,SO2,Sulfur Dioxide,CAP,TON,0.001362091
STRUCTURAL COMPOSITES IND,STRUCTURAL COMPOSITES IND,336  ENTERPRISE PL,POMONA,CA,91768,332420,34.06531,-117.781638,SO2,Sulfur Dioxide,CAP,TON,0.024185
"LA CITY, DWP","LA CITY, DWP",VARIOUS LOCATIONS IN SCAQMD,LOS ANGELES,CA,90012,926130,34.04993,-118.24101,SO2,Sulfur Dioxide,CAP,TON,7.02e-4
"MERCURY PLASTICS, INC.","MERCURY PLASTICS, INC.",2939 E WASHINGTON BLVD,LOS ANGELES,CA,90023,326199,34.017272,-118.216495,SO2,Sulfur Dioxide,CAP,TON,0.00593
LEEGIN CREATIVE LEATHER PROD. INC,LEEGIN CREATIVE LEATHER PROD. INC,14022  NELSON AVE,CITY OF INDUSTRY,CA,91746,315990,34.03992,-117.98109,SO2,Sulfur Dioxide,CAP,TON,1.26e-4
KAISER PERMANENTE MEDICAL CENTER,KAISER PERMANENTE MEDICAL CENTER,280 W MACARTHUR BLVD,OAKLAND,CA,94611,622110,37.822681,-122.257575,SO2,Sulfur Dioxide,CAP,TON,0.031205123
FINISAR CORPORATION,FINISAR CORPORATION,41762 CHRISTY STREET,FREMONT,CA,94538,334413,37.511944,-121.980054,SO2,Sulfur Dioxide,CAP,TON,2.721e-6
"UNCOMMON GROUNDS, LLC","UNCOMMON GROUNDS, LLC",2813 7TH STREET,BERKELEY,CA,94710,311920,37.853074,-122.291417,SO2,Sulfur Dioxide,CAP,TON,2.6151e-5
AIR LIQUIDE ELECTRONICS US,AIR LIQUIDE ELECTRONICS US,5121 BRANDIN COURT,FREMONT,CA,94538,325120,37.501581,-121.964764,SO2,Sulfur Dioxide,CAP,TON,3.249e-6
"GLOBAL PLATING, INC","GLOBAL PLATING, INC",44620 GRIMMER BLVD,FREMONT,CA,94538,332813,37.502701,-121.949758,SO2,Sulfur Dioxide,CAP,TON,0.001230909
BAY AREA RAPID TRANSIT DISTRICT,BAY AREA RAPID TRANSIT DISTRICT,150 SANDOVAL WAY,HAYWARD,CA,94544,485111,37.615332,-122.046604,SO2,Sulfur Dioxide,CAP,TON,4.28905e-4
AGRICULTURAL RESEARCH SERVICE,AGRICULTURAL RESEARCH SERVICE,800 BUCHANAN STREET,ALBANY,CA,94710,926140,37.877781,-122.310011,SO2,Sulfur Dioxide,CAP,TON,1.52523e-4
"SVC MANUFACTURING, INC DBA PEPSICO","SVC MANUFACTURING, INC DBA PEPSICO",1175 57TH AVENUE,OAKLAND,CA,94621,311421,37.760324,-122.205715,SO2,Sulfur Dioxide,CAP,TON,0.01905512
WASTE MANAGEMENT OF ALAMEDA COUNTY,WASTE MANAGEMENT OF ALAMEDA COUNTY,10840 ALTAMONT PASS RD,LIVERMORE,CA,94551,562212,37.7496,-121.6509,SO2,Sulfur Dioxide,CAP,TON,12.921952912
ST ROSE HOSPITAL,ST ROSE HOSPITAL,27200 CALAROGA AVE,HAYWARD,CA,94545,622110,37.63282,-122.08969,SO2,Sulfur Dioxide,CAP,TON,0.004464045
MASONIC HOMES OF CALIFORNIA,MASONIC HOMES OF CALIFORNIA,34400 MISSION BOULEVARD,UNION CITY,CA,94587,423720,37.598188,-122.01251,SO2,Sulfur Dioxide,CAP,TON,0.004861902
WASTE MANAGEMENT OF ALAMEDA COUNTY,WASTE MANAGEMENT OF ALAMEDA COUNTY,7010 AUTO MALL PKWY,FREMONT,CA,94538,562211,37.491239,-121.993548,SO2,Sulfur Dioxide,CAP,TON,2.570514176
AC TRANSIT DISTRICT - CENTRAL MAINTENANCE BUILDING,AC TRANSIT DISTRICT - CENTRAL MAINTENANCE BUILDING,10626 INTERNATIONAL BLVD,OAKLAND,CA,94603,485111,37.737146,-122.165764,SO2,Sulfur Dioxide,CAP,TON,7.27435e-4
IMTT RICHMOND CA,IMTT RICHMOND CA,100 CUTTING BOULEVARD,RICHMOND,CA,94804,424710,37.925,-122.369,SO2,Sulfur Dioxide,CAP,TON,0.009282584
"KOCH CARBON, LLC","KOCH CARBON, LLC",700 E 3RD STREET,PITTSBURG,CA,94565,423520,38.029364,-121.870501,SO2,Sulfur Dioxide,CAP,TON,0.001668243
JOHN MUIR MEDICAL CENTER,JOHN MUIR MEDICAL CENTER,1601 YGNACIO VALLEY ROAD,WALNUT CREEK,CA,94598,622110,37.912139,-122.04133,SO2,Sulfur Dioxide,CAP,TON,0.185504778
SILGAN CONTAINERS MFG CORP,SILGAN CONTAINERS MFG CORP,2200 WILBUR AVENUE,ANTIOCH,CA,94509,332431,38.01095,-121.7866,SO2,Sulfur Dioxide,CAP,TON,2.9276e-5
EAST BAY MUNICIPAL UTILITY DISTRICT,EAST BAY MUNICIPAL UTILITY DISTRICT,5211 LA HONDA ROAD,EL SOBRANTE,CA,94803,221310,37.962444,-122.283788,SO2,Sulfur Dioxide,CAP,TON,6.4011e-5
LOS MEDANOS ENERGY CENTER,LOS MEDANOS ENERGY CENTER,750 E 3RD STREET,PITTSBURG,CA,94565,221112,38.0298,-121.8727,SO2,Sulfur Dioxide,CAP,TON,6.901
PINOLE-HERCULES WASTEWATER TREATMENT PLANT,PINOLE-HERCULES WASTEWATER TREATMENT PLANT,11 TENNENT AVENUE,PINOLE,CA,94564,221320,38.0128,-122.2966,SO2,Sulfur Dioxide,CAP,TON,0.52349331
DELTA ENERGY CENTER,DELTA ENERGY CENTER,ARCY LANE,PITTSBURG,CA,94565,221112,38.0169,-121.845,SO2,Sulfur Dioxide,CAP,TON,8.24
PG & E -  HUMBOLDT BAY GENERATING STATION,PG&E - HUMBOLDT BAY GENERATING STATION,1000 KING SALMON AVE,EUREKA,CA,95501,221112,40.7411,-124.2084,SO2,Sulfur Dioxide,CAP,TON,1.376307071
DG FAIRHAVEN POWER COMPANY,DG FAIRHAVEN POWER COMPANY,97 BAY STREET,SAMOA,CA,95564,221117,40.7998,-124.2027,SO2,Sulfur Dioxide,CAP,TON,0.073876514
LA CO. SHERIFFS DEPARTMENT,LACO SHERIFFS DEPT - MIRA LOMA DETENTION CENTER,45000 WEST 60TH ST.,LANCASTER,CA,93534,922140,34.7002,-118.236697,SO2,Sulfur Dioxide,CAP,TON,4.1829e-4
LOS ANGELES COUNTY SANITATION DISTRICTS,LACO PALMDALE WATER RECLAMATION PLANT,39300 30TH STREET EAST,PALMDALE,CA,93550,221320,34.59538,-118.07622,SO2,Sulfur Dioxide,CAP,TON,0.21923359
LOS ANGELES COUNTY SANITATION DISTRICTS,LACO LANCASTER WATER RECLAMATION PLANT,1865 WEST AVENUE D,LANCASTER,CA,93534,221320,34.77715,-118.16633,SO2,Sulfur Dioxide,CAP,TON,0.273266915
LANCASTER LANDFILL AND RECYCLING CENTER,"LANCASTER LANDFILL, WASTE MNGMT OF CAL, INC",600 EAST AVE F,LANCASTER,CA,93535,562212,34.749203,-118.117637,SO2,Sulfur Dioxide,CAP,TON,10.34875
THE BOEING COMPANY,US AIR FORCE PLANT 42 - BOEING,1500 E. AVENUE M,PALMDALE,CA,93550,336411,34.653833,-118.092142,SO2,Sulfur Dioxide,CAP,TON,4.37889e-4
VULCAN MATERIALS COPMANY,VULCAN - 7107 E AVENUE T,7107 EAST AVENUE T,LITTLEROCK,CA,93543,324121,34.547,-118.008,SO2,Sulfur Dioxide,CAP,TON,0.2486714
LACO DPW - TRAIL K P S,LACO DPW - TRAIL K P S,43666 NORTH TRAIL K,LAKE HUGHES,CA,93532,221320,34.6747,-118.4409,SO2,Sulfur Dioxide,CAP,TON,2.548e-7
"ELECTRONIC CHROME GRINDING CO, INC","ELECTRONIC CHROME GRINDING CO, INC",9128-32  DICE RD,SANTA FE SPRINGS,CA,90670,332813,33.955441,-118.066794,SO2,Sulfur Dioxide,CAP,TON,7.818e-4
HARBOR FUMIGATION INC,HARBOR FUMIGATION INC,2200  MINER ST,SAN PEDRO,CA,90731,561710,33.7261,-118.27801,SO2,Sulfur Dioxide,CAP,TON,1.29e-4
ROBINSON HELICOPTER CO INC,ROBINSON HELICOPTER CO INC,2901-31  AIRPORT DR,TORRANCE,CA,90505,336411,33.79471,-118.333848,SO2,Sulfur Dioxide,CAP,TON,0.0065311
"SUNSHINE FPC, INC.","SUNSHINE FPC, INC.",1600  GAGE RD,MONTEBELLO,CA,90640,326111,33.98094,-118.12123,SO2,Sulfur Dioxide,CAP,TON,0.002905
EAST BAY DISCHARGERS AUTHORITY,EAST BAY DISCHARGERS AUTHORITY,3000 DAVIS STREET,SAN LEANDRO,CA,94577,488119,37.714096,-122.192435,SO2,Sulfur Dioxide,CAP,TON,1.1883e-5
EAST BAY DISCHARGERS AUTHORITY,EAST BAY DISCHARGERS AUTHORITY,3700 ENTERPRISE AVE,HAYWARD,CA,94545,221320,37.633444,-122.128731,SO2,Sulfur Dioxide,CAP,TON,2.3941e-5
"CASS, INC","CASS, INC",2730 PERALTA STREET,OAKLAND,CA,94607,423930,37.817918,-122.284607,SO2,Sulfur Dioxide,CAP,TON,0.017704886
TRC,TRC,JAMES DONLON BLVD,ANTIOCH,CA,94509,541720,37.981637,-121.842106,SO2,Sulfur Dioxide,CAP,TON,0.09326187
"KINDER MORGAN LIQUIDS TERMINALS, LLC","KINDER MORGAN LIQUIDS TERMINALS, LLC",1140 CANAL BOULEVARD,RICHMOND,CA,94804,424710,37.91581,-122.3675,SO2,Sulfur Dioxide,CAP,TON,0.029767123
DICON FIBEROPTICS INC,DICON FIBEROPTICS INC,1689 REGATTA BLVD,RICHMOND,CA,94804,334413,37.918192,-122.350795,SO2,Sulfur Dioxide,CAP,TON,5.08491e-4
TOWN OF DISCOVERY BAY,TOWN OF DISCOVERY BAY,1800 WILLOW LAKE ROAD,DISCOVERY BAY,CA,94514,221320,37.902873,-121.599661,SO2,Sulfur Dioxide,CAP,TON,6.965e-6
QUALAWASH HOLDINGS LLC,QUALAWASH HOLDINGS LLC,2750 GOODRICK AVENUE,RICHMOND,CA,94801,424710,37.973278,-122.365544,SO2,Sulfur Dioxide,CAP,TON,0.005124877
PACIFIC BELL CORPORATION,PACIFIC BELL CORPORATION,1755 LOCUST STREET,WALNUT CREEK,CA,94596,221112,37.902992,-122.063742,SO2,Sulfur Dioxide,CAP,TON,1.37769e-4
PACIFIC BELL,PACIFIC BELL,100 W 20TH STREET,ANTIOCH,CA,94509,517111,38.003769,-121.807566,SO2,Sulfur Dioxide,CAP,TON,2.7314e-5
PACIFIC BELL,PACIFIC BELL,6191 HIGH STREET,CLAYTON,CA,94517,517111,37.939672,-121.933271,SO2,Sulfur Dioxide,CAP,TON,2.2254e-5
PACIFIC BELL,PACIFIC BELL,1714 COLFAX,CONCORD,CA,94520,517111,37.975998,-122.030833,SO2,Sulfur Dioxide,CAP,TON,5.8285e-5
PACIFIC BELL,PACIFIC BELL,590 SAN RAMON VALLEY BLVD,DANVILLE,CA,94526,517111,37.816294,-121.996524,SO2,Sulfur Dioxide,CAP,TON,1.5888e-5
PACIFIC BELL,PACIFIC BELL,4849 APPIAN WAY,EL SOBRANTE,CA,94803,517111,37.975849,-122.299347,SO2,Sulfur Dioxide,CAP,TON,1.6432e-5
PACIFIC BELL,PACIFIC BELL,1540 SYCAMORE AVENUE,HERCULES,CA,94547,517111,38.011474,-122.272227,SO2,Sulfur Dioxide,CAP,TON,1.0447e-5
PACIFIC BELL,PACIFIC BELL,3610 HAPPY VALLEY RD,LAFAYETTE,CA,94549,517111,37.89187,-122.125854,SO2,Sulfur Dioxide,CAP,TON,7.4e-6
PACIFIC BELL,PACIFIC BELL,515 E STREET,MARTINEZ,CA,94553,517111,38.002356,-122.131776,SO2,Sulfur Dioxide,CAP,TON,4.5596e-5
PACIFIC BELL,PACIFIC BELL,8925 HOLLY STREET,OAKLAND,CA,94621,517111,37.750412,-122.173266,SO2,Sulfur Dioxide,CAP,TON,3.8197e-5
PACIFIC BELL,PACIFIC BELL,2105 MACDONALD AVE,RICHMOND,CA,94801,517111,37.91775,-122.34961,SO2,Sulfur Dioxide,CAP,TON,4.7555e-5
PACIFIC BELL,PACIFIC BELL,301 STAR STREET,OAKLEY,CA,94561,517111,37.995666,-121.711772,SO2,Sulfur Dioxide,CAP,TON,5.822e-5
AT&T,AT&T,9768 BROADMOOR DRIVE,SAN RAMON,CA,94583,517111,37.739406,-121.941088,SO2,Sulfur Dioxide,CAP,TON,3.6455e-5
EAST BAY MUNICIPAL UTILITY DIST - DANVILLE PP,EAST BAY MUNICIPAL UTILITY DIST - DANVILLE PP,2055 DANVILLE BLVD,DANVILLE,CA,94526,924110,37.879107,-122.050161,SO2,Sulfur Dioxide,CAP,TON,4.1897e-5
EAST BAY MUNICIPAL UTILITY DIST,EAST BAY MUNICIPAL UTILITY DIST,2201 LARKEY LANE,WALNUT CREEK,CA,94596,921120,37.913354,-122.08356,SO2,Sulfur Dioxide,CAP,TON,2.1029e-5
CITY OF SAN PABLO POLICE DEPT,CITY OF SAN PABLO POLICE DEPT,13880 SAN PABLO AVE,SAN PABLO,CA,94806,921120,37.960115,-122.341889,SO2,Sulfur Dioxide,CAP,TON,4.897e-6
CITY OF ANTIOCH,CITY OF ANTIOCH,3RD & H STREET,ANTIOCH,CA,94509,921110,38.016336,-121.814186,SO2,Sulfur Dioxide,CAP,TON,1.088e-6
MECS INC,MECS INC,1778 MONSANTO WAY,MARTINEZ,CA,94553,325998,38.019504,-122.056565,SO2,Sulfur Dioxide,CAP,TON,0.00571998
PACIFIC BELL CORPORATION,PACIFIC BELL CORPORATION,355 CENTRAL AVENUE,PITTSBURG,CA,94565,517111,38.024781,-121.883206,SO2,Sulfur Dioxide,CAP,TON,2.5192e-5
IRONHOUSE SANITARY DISTRICT,IRONHOUSE SANITARY DISTRICT,HIGHWAY 4,OAKLEY,CA,94561,221320,37.99309,-121.70325,SO2,Sulfur Dioxide,CAP,TON,9.794e-5
SUPERIOR READY MIX,SUPERIOR READY MIX/RYERSON,802 E. MAIN ST,EL CENTRO,CA,92243,212321,32.7945,-115.5311,SO2,Sulfur Dioxide,CAP,TON,0.00754494
IMPERIAL VALLEY AGGREGATES,IMPERIAL VALLEY AGGREGATES,SHELL CANYON ROAD,OCOTILLO,CA,92259,212321,32.779107,-116.012421,SO2,Sulfur Dioxide,CAP,TON,2.280385
NAVAL AIR FACILITY EL CENTRO,NAVAL AIR FACILITY EL CENTRO,1605 THIRD STREET,EL CENTRO,CA,92243,928110,32.77933,-115.54885,SO2,Sulfur Dioxide,CAP,TON,0.005168969
"LA CITY, TERMINAL ISLAND TREATMENT PLANT","LA CITY, TERMINAL ISLAND TREATMENT PLANT",445  FERRY ST,SAN PEDRO,CA,90731,924110,33.74465,-118.26112,SO2,Sulfur Dioxide,CAP,TON,0.31437392
ST. JUDE MEDICAL CRMD,ST. JUDE MEDICAL CRMD,15900  VALLEY VIEW CT,SYLMAR,CA,91342,334510,34.30579,-118.47818,SO2,Sulfur Dioxide,CAP,TON,0.0051987
PHARMAVITE LLC,PHARMAVITE LLC,1150  AVIATION PL,SAN FERNANDO,CA,91340,325411,34.29109,-118.42014,SO2,Sulfur Dioxide,CAP,TON,0.0179129
"CITY OF HERMOSA BEACH, FINANCE DEPT","CITY OF HERMOSA BEACH, FINANCE DEPT",555  6TH ST,HERMOSA BEACH,CA,90254,921190,33.84992,-118.39105,SO2,Sulfur Dioxide,CAP,TON,0.00683546
DAVIS WIRE CORP,DAVIS WIRE CORP,5555  IRWINDALE AVE,IRWINDALE,CA,91706,331222,34.113297,-117.936214,SO2,Sulfur Dioxide,CAP,TON,0.037636544
NOR-CAL METAL FABRICATORS,NOR-CAL METAL FABRICATORS,1121 3RD STREET,OAKLAND,CA,94607,332812,37.799533,-122.287851,SO2,Sulfur Dioxide,CAP,TON,7.5817e-5
U S VETERANS ADMINISTRATION MEDICAL CENTER,U S VETERANS ADMINISTRATION MEDICAL CENTER,4951 ARROYO ROAD,LIVERMORE,CA,94550,622110,37.62239,-121.76138,SO2,Sulfur Dioxide,CAP,TON,0.015170105
"SONOCO PROTECTIVE SOLUTIONS, INC","SONOCO PROTECTIVE SOLUTIONS, INC",3466 ENTERPRISE AVE,HAYWARD,CA,94545,322211,37.631896,-122.124182,SO2,Sulfur Dioxide,CAP,TON,0.003932446
AC TRANSIT DISTRICT,AC TRANSIT DISTRICT,1100 SEMINARY AVE,OAKLAND,CA,94621,485111,37.758702,-122.204404,SO2,Sulfur Dioxide,CAP,TON,1.9523e-5
DOE-KAO SANDIA NATIONAL LABORATORIES,DOE-KAO SANDIA NATIONAL LABORATORIES,7011 EAST AVENUE,LIVERMORE,CA,94550,541714,37.68,-121.709,SO2,Sulfur Dioxide,CAP,TON,0.01154845
"CONSOLIDATED PRINTERS, INC","CONSOLIDATED PRINTERS, INC",2630 8TH STREET,BERKELEY,CA,94710,323111,37.856382,-122.291499,SO2,Sulfur Dioxide,CAP,TON,4.67924e-4
LAM RESEARCH CORPORATION - FREMONT CAMPUS,LAM RESEARCH CORPORATION - FREMONT CAMPUS,4650 CUSHING PKWY,FREMONT,CA,94538,334413,37.489,-121.958,SO2,Sulfur Dioxide,CAP,TON,0.007073291
PACIFIC GAS AND ELECTRIC COMPANY,PACIFIC GAS AND ELECTRIC COMPANY,24300 CLAWITER ROAD,HAYWARD,CA,94545,221112,37.640759,-122.118592,SO2,Sulfur Dioxide,CAP,TON,5.1e-5
PACIFIC GAS AND ELECTRIC COMPANY,PACIFIC GAS AND ELECTRIC COMPANY,3797 1ST STREET,LIVERMORE,CA,94550,221112,37.6876,-121.75033,SO2,Sulfur Dioxide,CAP,TON,1.5312e-5
PACIFIC GAS AND ELECTRIC COMPANY/ENVR FIELD SVCS,PACIFIC GAS AND ELECTRIC COMPANY/ENVR FIELD SVCS,4801 OAKPORT STREET,OAKLAND,CA,94601,221122,37.762799,-122.217258,SO2,Sulfur Dioxide,CAP,TON,1.414e-5
CITY OF LIVERMORE WATER RECLAMATION PLANT,CITY OF LIVERMORE WATER RECLAMATION PLANT,101 W JACK LONDON BLVD,LIVERMORE,CA,94550,221320,37.68845,-121.809118,SO2,Sulfur Dioxide,CAP,TON,0.407555856
"AMPHENOL THERMOMETRICS, INC","AMPHENOL THERMOMETRICS, INC",1055 MISSION COURT,FREMONT,CA,94539,334413,37.488105,-121.929319,SO2,Sulfur Dioxide,CAP,TON,1.632e-6
TURK ISLAND SOLID WASTE DISPOSAL SITE,TURK ISLAND SOLID WASTE DISPOSAL SITE,UNION CITY BOULEVARD,UNION CITY,CA,94587,562211,37.598144,-122.080659,SO2,Sulfur Dioxide,CAP,TON,0.2769489
ROSELAWN CEMETERY,ROSELAWN CEMETERY,1240 N LIVERMORE AVE,LIVERMORE,CA,94550,812210,37.695803,-121.774678,SO2,Sulfur Dioxide,CAP,TON,5.08107e-4
VALLEY MEMORIAL HOSPITAL,VALLEY MEMORIAL HOSPITAL,1111 E STANLEY BLVD,LIVERMORE,CA,94550,622110,37.677069,-121.780236,SO2,Sulfur Dioxide,CAP,TON,0.009953766
CATHOLIC CREMATION SERVICES,CATHOLIC CREMATION SERVICES,1051 HARDER ROAD,HAYWARD,CA,94542,812210,37.65057,-122.063044,SO2,Sulfur Dioxide,CAP,TON,4.22488e-4
WESTERN COLLOID PRODUCTS,WESTERN COLLOID PRODUCTS,700 71ST AVENUE,OAKLAND,CA,94621,324121,37.751344,-122.197218,SO2,Sulfur Dioxide,CAP,TON,4.23598e-4
SUTTER HEALTH EDEN MEDICAL CENTER,SUTTER HEALTH EDEN MEDICAL CENTER,20103 LAKE CHABOT ROAD,CASTRO VALLEY,CA,94546,622110,37.69854,-122.08745,SO2,Sulfur Dioxide,CAP,TON,0.018690032
ACME FILL CORPORATION,ACME FILL CORPORATION,950 WATERBIRD WAY,MARTINEZ,CA,94553,562211,38.02351,-122.09603,SO2,Sulfur Dioxide,CAP,TON,0.009414695
"G3 MINERALS, BYRON PLANT","G3 MINERALS, BYRON PLANT",CAMINO DIABLO RD,BYRON,CA,94514,212322,37.792414,-121.714901,SO2,Sulfur Dioxide,CAP,TON,0.002387995
MICRONIZED ULTRA TECH INC,MICRONIZED ULTRA TECH INC,740 MARKET AVENUE,RICHMOND,CA,94801,212323,37.946522,-122.381435,SO2,Sulfur Dioxide,CAP,TON,0.001074836
KAISER PERMANENTE MEDICAL CENTER,KAISER PERMANENTE MEDICAL CENTER,200 MUIR ROAD,MARTINEZ,CA,94553,622110,37.992724,-122.11286,SO2,Sulfur Dioxide,CAP,TON,3.4986e-5
JOHN MUIR HEALTH - CONCORD CAMPUS,JOHN MUIR HEALTH - CONCORD CAMPUS,2540 EAST STREET,CONCORD,CA,94520,622110,37.982337,-122.034439,SO2,Sulfur Dioxide,CAP,TON,0.137532817
MARTINEZ COGEN LIMITED PARTNERSHIP AT TESORO,MARTINEZ COGEN LIMITED PARTNERSHIP AT TESORO,550 SOLANO WAY  AVON REFINERY,MARTINEZ,CA,94553,221112,38.022124,-122.06756,SO2,Sulfur Dioxide,CAP,TON,1.638158345
KAISER FOUNDATION HOSPITAL,KAISER FOUNDATION HOSPITAL,1425 SO MAIN STREET,WALNUT CREEK,CA,94596,622110,37.890177,-122.057115,SO2,Sulfur Dioxide,CAP,TON,0.011289812
SAN LEANDRO WATER POLLUTION CONTROL PLANT,SAN LEANDRO WATER POLLUTION CONTROL PLANT,3000 DAVIS STREET,SAN LEANDRO,CA,94577,221320,37.71257,-122.190659,SO2,Sulfur Dioxide,CAP,TON,0.205181682
AC TRANSIT,AC TRANSIT,1177 47TH STREET,EMERYVILLE,CA,94608,488490,37.833856,-122.280589,SO2,Sulfur Dioxide,CAP,TON,7.021e-6
DELTA DIABLO SANITATION DISTRICT,DELTA DIABLO SANITATION DISTRICT,2500 PITTSBRG ANTIOCH HWY,ANTIOCH,CA,94509,221320,38.004296,-121.833105,SO2,Sulfur Dioxide,CAP,TON,3.410190037
WEST COUNTY WASTEWATER DISTRICT,WEST COUNTY WASTEWATER DISTRICT,2377 GARDEN TRACT RD,RICHMOND,CA,94801,221320,37.962795,-122.375459,SO2,Sulfur Dioxide,CAP,TON,0.173179701
MILITARY OCEAN TERMINAL CONCORD,MILITARY OCEAN TERMINAL CONCORD,PORT CHICAGO HIGHWAY,CONCORD,CA,94520,928110,38.03354,-122.00864,SO2,Sulfur Dioxide,CAP,TON,3.74393e-4
DELTA DIABLO SANITATION,DELTA DIABLO SANITATION,7TH ST & MONTEZUMA ST,PITTSBURG,CA,94565,221320,38.032292,-121.890586,SO2,Sulfur Dioxide,CAP,TON,9.323e-5
WEST CONTRA COSTA COUNTY LANDFILL,WEST CONTRA COSTA COUNTY LANDFILL,1 PARR BOULEVARD,RICHMOND,CA,94801,562211,37.9682,-122.3854,SO2,Sulfur Dioxide,CAP,TON,2.018713324
CONTRA COSTA COUNTY,CONTRA COSTA COUNTY,1000 WARD STREET,MARTINEZ,CA,94553,922140,38.016145,-122.132924,SO2,Sulfur Dioxide,CAP,TON,5.5064e-5
CHEMTRADE WEST US LLC,CHEMTRADE WEST US LLC,525 CASTRO STREET,RICHMOND,CA,94801,325998,37.92873,-122.38406,SO2,Sulfur Dioxide,CAP,TON,148.0833109
"VERCO DECKING, INC","VERCO DECKING, INC",607 WILBUR AVENUE,ANTIOCH,CA,94509,332321,38.010783000000004,-121.795458,SO2,Sulfur Dioxide,CAP,TON,0.001336512
OAK VIEW MEMORIAL PARK,OAK VIEW MEMORIAL PARK,2500 E 18TH STREET,ANTIOCH,CA,94509,812210,38.003302,-121.77099,SO2,Sulfur Dioxide,CAP,TON,0.05643743
CITY OF RICHMOND WATER POLLUTION CONTROL DISTRICT,CITY OF RICHMOND WATER POLLUTION CONTROL DISTRICT,601 CANAL BOULEVARD,RICHMOND,CA,94804,221320,37.922472,-122.377279,SO2,Sulfur Dioxide,CAP,TON,0.298748547
RICHMOND METAL PAINTING,RICHMOND METAL PAINTING,1143 MARINA WAY SOUTH,RICHMOND,CA,94804,332812,37.915466,-122.354903,SO2,Sulfur Dioxide,CAP,TON,2.68201e-4
PACIFIC GAS AND ELECTRIC COMPANY,PACIFIC GAS AND ELECTRIC COMPANY,2111 HILLCREST AVE,ANTIOCH,CA,94509,221112,37.998633,-121.786511,SO2,Sulfur Dioxide,CAP,TON,5.258e-6
PACIFIC GAS AND ELECTRIC COMPANY,PACIFIC GAS AND ELECTRIC COMPANY,1030 DETROIT AVENUE,CONCORD,CA,94518,221112,37.953947,-122.028926,SO2,Sulfur Dioxide,CAP,TON,4.52798e-4
PACIFIC GAS AND ELECTRIC COMPANY,PACIFIC GAS AND ELECTRIC COMPANY,1100 SO 27TH STREET,RICHMOND,CA,94804,221112,37.913434,-122.342714,SO2,Sulfur Dioxide,CAP,TON,1.1102e-5
CONTRA COSTA COUNTY,CONTRA COSTA COUNTY,2500 ALHAMBRA AVENUE,MARTINEZ,CA,94553,622110,38.004606,-122.130212,SO2,Sulfur Dioxide,CAP,TON,0.016557897
CENTRAL CONTRA COSTA SANITARY DISTRICT,CENTRAL CONTRA COSTA SANITARY DISTRICT,10 CAMINO PABLO,ORINDA,CA,94563,924110,37.892045,-122.203858,SO2,Sulfur Dioxide,CAP,TON,5.95277e-4
"SFPP, LP","SFPP, LP",1550 SOLANO WAY,CONCORD,CA,94520,486910,37.99681,-122.04603,SO2,Sulfur Dioxide,CAP,TON,1.5333e-4
"GLOBAL PUMICE, LLC","GLOBAL PUMICE, LLC",3M E HY 395 ON CACTUS FLAT RD,OLANCHA,CA,93549,212390,36.224037,-117.926503,SO2,Sulfur Dioxide,CAP,TON,0.0018
N. INYO CNTY LOC HOSPITAL DIST,N. INYO CNTY LOC HOSPITAL DIST,150 PIONEER LANE,BISHOP,CA,93514,622110,37.362675,-118.405521,SO2,Sulfur Dioxide,CAP,TON,2e-4
"GRANITE CONSTRUCTION COMPANY, INC",GRANITE CONSTRUCTION 5 BRIDGES,5 BRIDGES RD,BISHOP,CA,93514,21232,37.4189,-118.40304,SO2,Sulfur Dioxide,CAP,TON,0.18842
SULLY MILLER CONTRACTING CO,SULLY MILLER CONTRACTING CO,2600  BUENA VISTA ST,IRWINDALE,CA,91706,324121,34.11816,-117.98273,SO2,Sulfur Dioxide,CAP,TON,0.012468
SENIOR AEROSPACE SSP,SENIOR AEROSPACE SSP,2980 N SAN FERNANDO BLVD,BURBANK,CA,91504,336413,34.201757,-118.34136,SO2,Sulfur Dioxide,CAP,TON,0.004665
CITY OF CERRITOS - WATER DIVISION,CITY OF CERRITOS - WATER DIVISION,12701  ARTESIA,CERRITOS,CA,90701,221310,33.87362,-118.06163,SO2,Sulfur Dioxide,CAP,TON,8.2314e-4
DUTRA MATERIALS/SAN RAFAEL ROC QUARRY INC,DUTRA MATERIALS/SAN RAFAEL ROC QUARRY INC,"SAN PEDRO RD, MCNEARS QUARRY",SAN RAFAEL,CA,94901,324121,37.985945,-122.448621,SO2,Sulfur Dioxide,CAP,TON,0.006398325
REDWOOD LANDFILL INC,REDWOOD LANDFILL INC,8950 REDWOOD HWY,NOVATO,CA,94945,562211,38.165333,-122.564623,SO2,Sulfur Dioxide,CAP,TON,23.4694856
SEWERAGE AGENCY OF SOUTH MARIN,SEWERAGE AGENCY OF SOUTH MARIN,450 SYCAMORE AVENUE,MILL VALLEY,CA,94941,221320,37.894228,-122.526839,SO2,Sulfur Dioxide,CAP,TON,0.004250489
PACIFIC BELL,PACIFIC BELL,7 KING STREET,LARKSPUR,CA,94939,517111,37.933863,-122.534983,SO2,Sulfur Dioxide,CAP,TON,9.1519e-5
NOVATO COMMUNITY HOSPITAL,NOVATO COMMUNITY HOSPITAL,180 ROWLAND WAY,NOVATO,CA,94945,622110,38.093956,-122.555388,SO2,Sulfur Dioxide,CAP,TON,0.00173662
NAZARETH HOUSE OF SAN RAFAEL,NAZARETH HOUSE OF SAN RAFAEL,245 NOVA ALBION WAY,SAN RAFAEL,CA,94903,813110,38.0029,-122.550847,SO2,Sulfur Dioxide,CAP,TON,1.4235e-5
PACIFIC GAS & ELECTRIC CO,PACIFIC GAS & ELECTRIC CO,4690 EVORA ROAD,CONCORD,CA,94520,486210,38.018236,-122.011878,SO2,Sulfur Dioxide,CAP,TON,0.013342617
RODEO SANITARY DISTRICT,RODEO SANITARY DISTRICT,800 SAN PABLO AVE,RODEO,CA,94572,221320,38.0417,-122.2633,SO2,Sulfur Dioxide,CAP,TON,1.63233e-4
CONTRA COSTA NEWSPAPERS,CONTRA COSTA NEWSPAPERS,2505 DEAN LESHER DR,CONCORD,CA,94520,513110,38.015475,-122.026634,SO2,Sulfur Dioxide,CAP,TON,2.4376e-5
EAST BAY MUNICIPAL UTILITY DISTRICT,EAST BAY MUNICIPAL UTILITY DISTRICT,2755 ISABEL STREET,RICHMOND,CA,94804,221320,37.895887,-122.322296,SO2,Sulfur Dioxide,CAP,TON,6.2137e-5
PRIME WHEEL,PRIME WHEEL,17704 S BROADWAY ST,CARSON,CA,90746,336390,33.86986,-118.27767,SO2,Sulfur Dioxide,CAP,TON,0.019597
"VALLEY-TODECO, INC","VALLEY-TODECO, INC",12975  BRADLEY AVE,SYLMAR,CA,91342,332722,34.30479,-118.46067,SO2,Sulfur Dioxide,CAP,TON,3.49e-5
AG-FUME SERVICES INC,AG-FUME SERVICES INC,2200  MINER ST,SAN PEDRO,CA,90731,561710,33.7261,-118.27801,SO2,Sulfur Dioxide,CAP,TON,2.54e-4
CALMAT CO,CALMAT CO,16005  FOOTHILL BLVD,IRWINDALE,CA,91706,324121,34.13378,-117.93193,SO2,Sulfur Dioxide,CAP,TON,0.0229535
CALMAT CO,CALMAT CO,11447  TUXFORD ST,SUN VALLEY,CA,91352,324121,34.22978,-118.38161,SO2,Sulfur Dioxide,CAP,TON,0.0278382
SANITARY DISTRICT #5 OF MARIN COUNTY,SANITARY DISTRICT #5 OF MARIN COUNTY,2001 PARADISE DRIVE,TIBURON,CA,94920,221320,37.873554,-122.449752,SO2,Sulfur Dioxide,CAP,TON,3.10302e-4
LAS GALLINAS VALLEY SANITARY DISTRICT,LAS GALLINAS VALLEY SANITARY DISTRICT,300 SMITH RANCH ROAD,SAN RAFAEL,CA,94903,221320,38.0251,-122.5187,SO2,Sulfur Dioxide,CAP,TON,0.087051933
MARINHEALTH MEDICAL CENTER,MARINHEALTH MEDICAL CENTER,250 BON AIR ROAD,GREENBRAE,CA,94904,622110,37.945787,-122.534931,SO2,Sulfur Dioxide,CAP,TON,0.018942187
GOLDEN GATE BRIDGE & TRANSIT DISTRICT,GOLDEN GATE BRIDGE & TRANSIT DISTRICT,1011 ANDERSEN DRIVE,SAN RAFAEL,CA,94901,485111,37.955756,-122.506365,SO2,Sulfur Dioxide,CAP,TON,4.19219e-4
SAUSALITO-MARIN CITY SANITARY DISTRICT,SAUSALITO-MARIN CITY SANITARY DISTRICT,#1 FORT BAKER ROAD,SAUSALITO,CA,94965,924110,37.843274,-122.47711,SO2,Sulfur Dioxide,CAP,TON,0.001937443
PACIFIC GAS AND ELECTRIC COMPANY,PACIFIC GAS AND ELECTRIC COMPANY,1220 ANDERSON DRIVE,SAN RAFAEL,CA,94901,221112,37.955522,-122.506355,SO2,Sulfur Dioxide,CAP,TON,1.01299e-4
KAISER PERMANENTE SAN RAFAEL MEDICAL CENTER,KAISER PERMANENTE SAN RAFAEL MEDICAL CENTER,99 MONTECILLO ROAD,SAN RAFAEL,CA,94903,622110,38.003789,-122.552174,SO2,Sulfur Dioxide,CAP,TON,0.133368425
SAN QUENTIN STATE PRISON,SAN QUENTIN STATE PRISON,CA STATE PRISON,SAN QUENTIN,CA,94964,922140,37.9411,-122.4895,SO2,Sulfur Dioxide,CAP,TON,6.82165e-4
VALLEY MEMORIAL PARK,VALLEY MEMORIAL PARK,650 BUGEIA LANE,NOVATO,CA,94945,812210,38.12276,-122.53004,SO2,Sulfur Dioxide,CAP,TON,0.1772866
DIANTHAS COFFEE,DIANTHAS COFFEE,91B LOUISE STREET,SAN RAFAEL,CA,94901,311920,37.961758,-122.506256,SO2,Sulfur Dioxide,CAP,TON,1.13454e-4
R J. NOBLE COMPANY,R J. NOBLE COMPANY,15505 E LINCOLN AVE,ORANGE,CA,92865,324121,33.83537,-117.86132,SO2,Sulfur Dioxide,CAP,TON,0.0514634
"HUNTINGTON BEACH CITY, WATER DEPT","HUNTINGTON BEACH CITY, WATER DEPT",19001-71  HUNTINGTON ST,HUNTINGTON BEACH,CA,92648,221310,33.68663,-117.99636,SO2,Sulfur Dioxide,CAP,TON,0.00158648
"HUNTINGTON BEACH CITY, WATER DEPT","HUNTINGTON BEACH CITY, WATER DEPT",14561  SPRINGDALE ST,HUNTINGTON BEACH,CA,92647,221310,33.75133,-118.02451,SO2,Sulfur Dioxide,CAP,TON,0.01122474
CALIF. DEPT OF CORRECTIONS,CALIF. DEPT OF CORRECTIONS - PELICAN BAY PRISON,9505 LAKE EARL DRIVE,CRESCENT CITY,CA,95531,922140,41.857269,-124.143317,SO2,Sulfur Dioxide,CAP,TON,1.11871329e-4
BROADRIDGE CUSTOMER COMMUNICATIONS,BROADRIDGE CUSTOMER COMMUNICATIONS,5220 ROBERT J MATHEWS PKWY,EL DORADO HILLS,CA,95762,323111,38.616353,-121.057657,SO2,Sulfur Dioxide,CAP,TON,0.11
PACIFIC BELL,PACIFIC BELL,871 COUNTRY CLUB DR,MORAGA,CA,94556,517111,37.833679,-122.131427,SO2,Sulfur Dioxide,CAP,TON,3.5487e-5
VA MEDICAL CENTER,VA MEDICAL CENTER,150 MUIR ROAD,MARTINEZ,CA,94553,622110,37.992956,-122.113666,SO2,Sulfur Dioxide,CAP,TON,0.002111663
AC TRANSIT,AC TRANSIT,2016 MACDONALD AVE,RICHMOND,CA,94801,488490,37.93392,-122.349257,SO2,Sulfur Dioxide,CAP,TON,2.2951e-5
MT VIEW SANITARY DISTRICT,MT VIEW SANITARY DISTRICT,3800 ARTHUR ROAD,MARTINEZ,CA,94553,221320,38.011193,-122.087155,SO2,Sulfur Dioxide,CAP,TON,0.143839613
KELLER CANYON LANDFILL COMPANY,KELLER CANYON LANDFILL COMPANY,901 BAILEY ROAD,PITTSBURG,CA,94565,562211,37.993998,-121.935153,SO2,Sulfur Dioxide,CAP,TON,9.488939
CONTRA COSTA COLLEGE,CONTRA COSTA COLLEGE,2600 MISSION BELL DR,SAN PABLO,CA,94806,611210,37.964879,-122.342689,SO2,Sulfur Dioxide,CAP,TON,1.3539e-5
CEDAR LAWN MEMORIAL PARK & MORTUARY,CEDAR LAWN MEMORIAL PARK & MORTUARY,48800 WARM SPRING BLVD,FREMONT,CA,94539,812210,37.464056,-121.91425,SO2,Sulfur Dioxide,CAP,TON,0.0184152
IRVINGTON MEMORIAL CEMETERY,IRVINGTON MEMORIAL CEMETERY,41001 CHAPEL WAY,FREMONT,CA,94538,812210,37.532659,-121.963746,SO2,Sulfur Dioxide,CAP,TON,0.004161872
SUN-MAID GROWERS OF CALIFORNIA,SUN-MAID GROWERS OF CALIFORNIA,13525 S BETHEL AVE,KINGSBURG,CA,93631,311119,36.540619,-119.575443,SO2,Sulfur Dioxide,CAP,TON,0.0335658
SUN-MAID GROWERS OF CALIFORNIA,SUN-MAID GROWERS OF CALIFORNIA,9818 S JACOBS AVE,ORANGE COVE,CA,93646,312140,36.590412,-119.31448,SO2,Sulfur Dioxide,CAP,TON,0.078778222
CITY OF RICHMOND /CITY MANAGERS OFFICE,CITY OF RICHMOND /CITY MANAGERS OFFICE,"CASTRO ST, PUMPING STATION",RICHMOND,CA,94804,237110,37.932546,-122.380301,SO2,Sulfur Dioxide,CAP,TON,1.37116e-4
DUTRA MATERIALS/SAN RAFAEL ROCK QUARRY INC,DUTRA MATERIALS/SAN RAFAEL ROCK QUARRY INC,961 WESTERN DRIVE,RICHMOND,CA,94801,324121,37.92855,-122.39579,SO2,Sulfur Dioxide,CAP,TON,0.01447335
BIO-RAD LABORATORIES,BIO-RAD LABORATORIES,2000 ALFRED NOBEL DR,HERCULES,CA,94547,541715,38.025461,-122.278641,SO2,Sulfur Dioxide,CAP,TON,7.1284e-5
CENTRAL CONTRA COSTA SANITARY DISTRICT,CENTRAL CONTRA COSTA SANITARY DISTRICT,1790 SCHOOL STREET,MORAGA,CA,94556,221320,37.830495,-122.132226,SO2,Sulfur Dioxide,CAP,TON,3.47761e-4
DEL MONTE FOODS RESEARCH CENTER,DEL MONTE FOODS RESEARCH CENTER,205 N WIGET LANE,WALNUT CREEK,CA,94598,541720,37.924369,-122.02374,SO2,Sulfur Dioxide,CAP,TON,0.004465832
DAHL-BECK ELECTRIC,DAHL-BECK ELECTRIC,2775 GOODRICK STREET,RICHMOND,CA,94801,423610,37.972037,-122.364371,SO2,Sulfur Dioxide,CAP,TON,7.671e-5
WEBER METALS INC,WEBER METALS INC,16706  GARFIELD AVE,PARAMOUNT,CA,90723,332112,33.88262,-118.16813,SO2,Sulfur Dioxide,CAP,TON,0.08875
"LA CITY, SANITATION BUREAU (HTP)","LA CITY, SANITATION BUREAU (HTP)",12000  VISTA DEL MAR,PLAYA DEL REY,CA,90293,221320,33.92445,-118.43281,SO2,Sulfur Dioxide,CAP,TON,0.83981631
THE GAS CO./ SEMPRA ENERGY,THE GAS CO./ SEMPRA ENERGY,8101 S ROSEMEAD BLVD,PICO RIVERA,CA,90660,561110,33.967722,-118.107173,SO2,Sulfur Dioxide,CAP,TON,0.0089162
ADVENTIST HEALTH BAKERSFIELD,ADVENTIST HEALTH BAKERSFIELD,2615 CHESTER AVE,BAKERSFIELD,CA,93301,622110,35.382328,-119.019989,SO2,Sulfur Dioxide,CAP,TON,6.92956e-4
"CALIFORNIA RESOURCES ELK HILLS, LLC","CALIFORNIA RESOURCES ELK HILLS, LLC",GAS PLANT  - SEC 35 T 30S R23E,TUPMAN,CA,93276,211130,35.280204,-119.47747,SO2,Sulfur Dioxide,CAP,TON,1.9398276521
BERRY PETROLEUM COMPANY LLC,BERRY PETROLEUM COMPANY LLC,SE SECTION 28; TOWNSHIP 12N; RANGE 24W,KERN COUNTY,CA,93224,221210,35.093046,-119.443617,SO2,Sulfur Dioxide,CAP,TON,0.2616635
BAKERSFIELD CITY WASTEWATER #2,BAKERSFIELD CITY WASTEWATER #2,1700 E PLANZ,BAKERSFIELD,CA,93307,221320,35.325139,-118.974726,SO2,Sulfur Dioxide,CAP,TON,0.18044096
H & S CHEVRON FOOD MART INC,H & S CHEVRON FOOD MART INC,300 BEAR MOUNTAIN BLVD,ARVIN,CA,93203,457110,35.209222,-118.827416,SO2,Sulfur Dioxide,CAP,TON,0.00936444
"NOR-CAL BEVERAGE COMPANY, INC.","NOR-CAL BEVERAGE COMPANY, INC.",1226 N OLIVE ST,ANAHEIM,CA,92801,311411,33.85102,-117.91282,SO2,Sulfur Dioxide,CAP,TON,0.05606
BASF CORPORATION,BASF CORPORATION,210 E MEATS AVE,ORANGE,CA,92865,325211,33.82297,-117.85275,SO2,Sulfur Dioxide,CAP,TON,3.643e-4
HOOD MFG INC,HOOD MFG INC,2621 S BIRCH ST,SANTA ANA,CA,92707,327212,33.712153,-117.871179,SO2,Sulfur Dioxide,CAP,TON,2.54e-5
"SPS TECHNOLOGIES, LLC","SPS TECHNOLOGIES, LLC",1700 W 132ND ST,GARDENA,CA,90249,332722,33.91216,-118.30766,SO2,Sulfur Dioxide,CAP,TON,0.002762
BARTON BRANDS,BARTON BRANDS,2202 E DEL AMO BLVD,CARSON,CA,90749,312140,33.847,-118.234,SO2,Sulfur Dioxide,CAP,TON,5.25e-5
COMPOSITES HORIZONS INC,COMPOSITES HORIZONS INC,1471  INDUSTRIAL PARK ST,COVINA,CA,91722,336413,34.09175,-117.92078,SO2,Sulfur Dioxide,CAP,TON,1.89e-4
METHODIST HOSPITAL OF SO CAL,METHODIST HOSPITAL OF SO CAL,300 W HUNTINGTON DR,ARCADIA,CA,91007,622110,34.13445,-118.04166,SO2,Sulfur Dioxide,CAP,TON,0.0158382
RED CARPET CAR WASH,RED CARPET CAR WASH,4411 N BLACKSTONE AVE,FRESNO,CA,93726,457110,36.798049,-119.790731,SO2,Sulfur Dioxide,CAP,TON,0.00936444
SAINT AGNES MEDICAL CENTER,SAINT AGNES MEDICAL CENTER,1303 E HERNDON AVE,FRESNO,CA,93720,622110,36.83761,-119.76418,SO2,Sulfur Dioxide,CAP,TON,0.29208791
"D. SCOTT MANLEY, SFPP, L.P.","SFPP, L.P.",4149 S MAPLE AVE,FRESNO,CA,93725,493190,36.675072,-119.745867,SO2,Sulfur Dioxide,CAP,TON,0.27625071
AERA ENERGY LLC,AERA ENERGY LLC,HEAVY OIL PRODUCTION,FRESNO COUNTY,CA,93701,211120,36.134265,-120.388425,SO2,Sulfur Dioxide,CAP,TON,1.6146991
MOUNTAIN VIEW CEMETERY ASSOCIATION,MOUNTAIN VIEW CEMETERY ASSOCIATION,5000 PIEDMONT AVE,OAKLAND,CA,94611,812210,37.832509,-122.243954,SO2,Sulfur Dioxide,CAP,TON,1.4638e-4
ALAMEDA HEALTH SYSTEM - HIGHLAND HOSPITAL CAMPUS,ALAMEDA HEALTH SYSTEM - HIGHLAND HOSPITAL CAMPUS,1411 E 31ST STREET,OAKLAND,CA,94602,622110,37.797159,-122.229889,SO2,Sulfur Dioxide,CAP,TON,0.023409543
ALAMEDA HEALTH SYSTEM DBA ALAMEDA HOSPITAL,ALAMEDA HEALTH SYSTEM DBA ALAMEDA HOSPITAL,2070 CLINTON AVENUE,ALAMEDA,CA,94501,622110,37.761272,-122.252797,SO2,Sulfur Dioxide,CAP,TON,0.004360102
AC TRANSIT,AC TRANSIT,1758 SABRE STREET,HAYWARD,CA,94545,488490,37.654693,-122.128234,SO2,Sulfur Dioxide,CAP,TON,1.0882e-5
BIDART COLD STORAGE INC,BIDART COLD STORAGE INC,5055 E LERDO HIGHWAY,SHAFTER,CA,93263,493120,35.498227,-119.185468,SO2,Sulfur Dioxide,CAP,TON,0.2995
PLAINS PIPELINE LP,PLAINS PIPELINE LP,"PENTLAND PUMP STATION,2311 BASIC SCHOOL ROAD",MARICOPA,CA,93252,486110,35.049531,-119.321445,SO2,Sulfur Dioxide,CAP,TON,1.06e-5
WEST KERN WATER DISTRICT,WEST KERN WATER DISTRICT,STATION D,TAFT,CA,93268,221310,35.128006,-119.472633,SO2,Sulfur Dioxide,CAP,TON,0.01478781
HARRYS MARKET,HARRYS MARKET,731 SOUTH H ST,BAKERSFIELD,CA,93304,457110,35.347019,-119.02133,SO2,Sulfur Dioxide,CAP,TON,0.00936444
JOHNS-MANVILLE,JOHNS-MANVILLE,5916 COUNTY ROAD 49,WILLOWS,CA,95988,327993,39.5361,-122.2614,SO2,Sulfur Dioxide,CAP,TON,0.0075400413
M & P DEHYDRATORS,M & P DEHYDRATORS,3270 HWY 45,GLENN,CA,95943,311119,39.636719,-122.016442,SO2,Sulfur Dioxide,CAP,TON,1.344e-4
BRENDAN LEIGH,U.S. FISH & WILDLIFE SERVICE,SACRAMENTO N.W.R. 752 HWY.99W,WILLOWS,CA,95988,924120,39.428971,-122.183192,SO2,Sulfur Dioxide,CAP,TON,0.00195
RUMIANO CHEESE COMPANY,RUMIANO CHEESE COMPANY,1629 CO. ROAD E,WILLOWS,CA,95988,311513,39.540147,-122.234258,SO2,Sulfur Dioxide,CAP,TON,0.0041664
J P OIL CO INC,J P OIL CO INC,LIGHT OIL CENTRAL,KERN COUNTY,CA,93224,211120,35.219701,-119.764996,SO2,Sulfur Dioxide,CAP,TON,0.2709637
SAN JOAQUIN FACILITIES MGMT,SAN JOAQUIN FACILITIES MGMT,LIGHT OIL CENTRAL,KERN COUNTY,CA,93224,211120,35.28714,-119.20685,SO2,Sulfur Dioxide,CAP,TON,0.5115694
APTCO LLC,APTCO LLC,31381 POND RD,MCFARLAND,CA,93215,326150,35.716693,-119.235004,SO2,Sulfur Dioxide,CAP,TON,0.1200997
"TRC CYPRESS GROUP, LLC",TRC CYPRESS GROUP LLC,HEAVY OIL WESTERN,KERN COUNTY,CA,93224,211120,35.127996,-119.490365,SO2,Sulfur Dioxide,CAP,TON,0.697982593
CRIMSON RESOURCE MANAGEMENT,CRIMSON RESOURCE MANAGEMENT,HEAVY OIL CENTRAL,KERN COUNTY,CA,93224,211120,35.432487,-119.135576,SO2,Sulfur Dioxide,CAP,TON,0.0269
CRIMSON RESOURCE MANAGEMENT,CRIMSON RESOURCE MANAGEMENT,GREELEY GAS PLANT,KERN COUNTY,CA,93224,211130,35.388898,-119.206763,SO2,Sulfur Dioxide,CAP,TON,0.0153
"CRIMSON MIDSTREAM, LLC",SHELL PIPELINE COMPANY LP,GRIFFITH STATION,BAKERSFIELD,CA,93313,486110,35.259708,-119.079773,SO2,Sulfur Dioxide,CAP,TON,0.0168
RAMCAR BATTERIES INC,RAMCAR BATTERIES INC,2700  CARRIER AVE,COMMERCE,CA,90040,335910,33.99354,-118.13944,SO2,Sulfur Dioxide,CAP,TON,0.0011123
SENSOR SYSTEMS INC,SENSOR SYSTEMS INC,8938  MASON AVE,CHATSWORTH,CA,91311,334220,34.23318,-118.57898,SO2,Sulfur Dioxide,CAP,TON,9.26e-5
BAKER COMMODITIES INC,BAKER COMMODITIES INC,4020  BANDINI BLVD,VERNON,CA,90058,311613,34.004267,-118.19303,SO2,Sulfur Dioxide,CAP,TON,0.0896658
"KINDER MORGAN LIQUIDS TERMINALS, LLC","KINDER MORGAN LIQUIDS TERMINALS, LLC",1900  WILMINGTON - SAN PEDRO RD,WILMINGTON,CA,90744,424710,33.7717,-118.2893,SO2,Sulfur Dioxide,CAP,TON,6.350656e-4
"KINDER MORGAN LIQUIDS TERMINALS, LLC","KINDER MORGAN LIQUIDS TERMINALS, LLC",2000 E SEPULVEDA BLVD,CARSON,CA,90810,424710,33.8007,-118.2332,SO2,Sulfur Dioxide,CAP,TON,0.6382082
THE BOEING COMPANY,THE BOEING COMPANY,"IMPERIAL, MAPLE, NASH & SELBY",EL SEGUNDO,CA,90245,334220,33.91501,-118.40463,SO2,Sulfur Dioxide,CAP,TON,0.00425492
GHIRARDELLI CHOCOLATE CO,GHIRARDELLI CHOCOLATE CO,1111 139TH AVENUE,SAN LEANDRO,CA,94578,311351,37.709007,-122.141926,SO2,Sulfur Dioxide,CAP,TON,0.010989244
MR ESPRESSO,MR ESPRESSO,696 3RD STREET,OAKLAND,CA,94607,311920,37.800734,-122.29261,SO2,Sulfur Dioxide,CAP,TON,0.09893967
CASTRO VALLEY CREMATORY INC,CASTRO VALLEY CREMATORY INC,21228 REDWOOD ROAD,CASTRO VALLEY,CA,94546,812210,37.69147,-122.073157,SO2,Sulfur Dioxide,CAP,TON,0.001578502
"CALIFORNIA STATE UNIVERSITY, EAST BAY","CALIFORNIA STATE UNIVERSITY, EAST BAY",25800 CARLOS BEE BLVD,HAYWARD,CA,94542,611310,37.65725,-122.062053,SO2,Sulfur Dioxide,CAP,TON,2.95954e-4
FEATHER RIVER HOSPITAL,FEATHER RIVER HOSPITAL,5974 PENTZ ROAD,PARADISE,CA,95969,622110,39.757449,-121.571299,SO2,Sulfur Dioxide,CAP,TON,0.07
PACIFIC BELL DBA AT&T CA,AT&T #CHICCA01/TA011,518 W. 4TH STREET,CHICO,CA,95928,517112,39.738,-121.854,SO2,Sulfur Dioxide,CAP,TON,0.01
PACIFIC BELL DBA AT&T CA,AT&T #GRDLCA11/TB036,464 KENTUCKY STREET,GRIDLEY,CA,95948,517112,39.363206,-121.696044,SO2,Sulfur Dioxide,CAP,TON,0.002
CROP PRODUCTION SERVICES INC,CROP PRODUCTION SERVICES INC,2819 S MAPLE AVE,FRESNO,CA,93725,325314,36.699041,-119.745421,SO2,Sulfur Dioxide,CAP,TON,0.3463168
UTILITY TRAILER SALES COMPANY,UTILITY TRAILER SALES COMPANY,2680 S EAST AVE,FRESNO,CA,93706,441227,36.702674,-119.780656,SO2,Sulfur Dioxide,CAP,TON,0.0101745
COUNTY OF FRESNO FACILITY SERVICES,COUNTY OF FRESNO FACILITY SERVICES,445 S CEDAR AVE,FRESNO,CA,93702,622110,36.7388,-119.7544,SO2,Sulfur Dioxide,CAP,TON,0.013514304
FRESNO COGENERATION PARTNERS,FRESNO COGENERATION PARTNERS,8105 S LASSEN AVE,SAN JOAQUIN,CA,93660,221118,36.616828,-120.09942,SO2,Sulfur Dioxide,CAP,TON,0.0025965
SAN JOAQUIN VALLEY REHAB,SAN JOAQUIN VALLEY REHAB,7173 N SHARON AVE,FRESNO,CA,93720,622110,36.83983,-119.759562,SO2,Sulfur Dioxide,CAP,TON,5.67e-5
KAISER PERMANENTE,KAISER PERMANENTE,901 NEVIN AVENUE,RICHMOND,CA,94801,622110,37.934918,-122.360344,SO2,Sulfur Dioxide,CAP,TON,0.006611425
KIE-CON INC,KIE-CON INC,3551 WILBUR AVENUE,ANTIOCH,CA,94509,333120,38.011443,-121.7524,SO2,Sulfur Dioxide,CAP,TON,0.02120282
ANTIOCH BUILDING MATERIALS COMPANY,ANTIOCH BUILDING MATERIALS COMPANY,1375 CALIFORNIA AVE,PITTSBURG,CA,94565,324121,38.010959,-121.863812,SO2,Sulfur Dioxide,CAP,TON,0.001472792
HEART HOSPITAL OF BK LLC,HEART HOSPITAL OF BK LLC,3001 SILLECT AVE,BAKERSFIELD,CA,93308,622110,35.386663,-119.040274,SO2,Sulfur Dioxide,CAP,TON,0.20225852
WEST KERN WATER DISTRICT,WEST KERN WATER DISTRICT,HWY 119 & CA AQUEDUCT,TAFT,CA,93314,221310,35.266088,-119.310794,SO2,Sulfur Dioxide,CAP,TON,0.1288
WEST KERN WATER DISTRICT,WEST KERN WATER DISTRICT,"STATION B, HIGHWAY 119 & AIRPORT ROAD",TAFT,CA,93268,221310,35.182917,-119.415271,SO2,Sulfur Dioxide,CAP,TON,0.1851912
WEST KERN WATER DISTRICT,WEST KERN WATER DISTRICT,STATION G,TAFT,CA,93268,221310,35.198363,-119.541386,SO2,Sulfur Dioxide,CAP,TON,0.0949595
LEE DEVELOPMENT GROUP,LEE DEVELOPMENT GROUP,1300 18TH ST,BAKERSFIELD,CA,93388,236220,35.375371,-119.016541,SO2,Sulfur Dioxide,CAP,TON,2.89e-5
WEST KERN WATER DISTRICT,WEST KERN WATER DISTRICT,STATION C-10,TAFT,CA,93314,221310,35.145902,-119.462784,SO2,Sulfur Dioxide,CAP,TON,0.0322
BERRY PETROLEUM COMPANY LLC,BERRY PETROLEUM COMPANY LLC,HEAVY OIL CENTRAL STATIONARY SOURCE,KERN COUNTY,CA,93224,211130,35.579188,-119.035971,SO2,Sulfur Dioxide,CAP,TON,5.6133732
SUNRISE POWER CO,SUNRISE POWER CO,12857 SUNRISE POWER RD,FELLOWS,CA,93224,221113,35.2097,-119.585,SO2,Sulfur Dioxide,CAP,TON,6.242244
RIDGELINE OIL & ASPHALT CO,RIDGELINE OIL & ASPHALT CO,PANAMA LANE & PROGRESS RD,BAKERSFIELD,CA,93311,324122,35.296284,-119.101235,SO2,Sulfur Dioxide,CAP,TON,0.0508
WONDERFUL PISTACHIOS & ALMONDS,WONDERFUL PISTACHIOS & ALMONDS,3.5 MILES N OF HWY 46 ON HWY 33,LOST HILLS,CA,93249,115114,35.6527,-119.8895,SO2,Sulfur Dioxide,CAP,TON,1.10437385
"CALIFORNIA RESOURCES ELK HILLS, LLC","CALIFORNIA RESOURCES ELK HILLS, LLC",LIGHT OIL WESTERN,KERN COUNTY,CA,93309,211130,35.273121,-119.40775,SO2,Sulfur Dioxide,CAP,TON,0.287916802
M & L COLD STORAGE,M & L COLD STORAGE,33164 POND RD,DELANO,CA,93215,493120,35.723479,-119.159623,SO2,Sulfur Dioxide,CAP,TON,1.69e-5
MIDSTREAM ENERGY PARTNERS (USA) LLC,MIDSTREAM ENERGY PARTNERS (USA) LLC,"9224 TUPMAN RD, NORTH COLES LEVEE GAS PLANT",TUPMAN,CA,93276,211130,35.280012,-119.309868,SO2,Sulfur Dioxide,CAP,TON,0.55135861
TEHACHAPI-CUMMINGS WATER DIST,TEHACHAPI-CUMMINGS WATER DIST,WEST OF TEJON RANCH RD,TEJON RANCH,CA,93203,221310,35.031816,-118.767994,SO2,Sulfur Dioxide,CAP,TON,0.2359156
WILLIAM BOLTHOUSE FARMS-BRUNDAGE PLANT,"WM BOLTHOUSE FARMS, INC.",7200 E BRUNDAGE LANE,BAKERSFIELD,CA,93307,311941,35.3558,-118.9266,SO2,Sulfur Dioxide,CAP,TON,0.73338441
DIGNITY HEALTH - BAKERSFIELD MEMORIAL,DIGNITY HEALTH - BAKERSFIELD MEMORIAL,420 34TH ST/3600 SAN DIMAS,BAKERSFIELD,CA,93301,622110,35.3916,-119.0066,SO2,Sulfur Dioxide,CAP,TON,0.10603038
CALIFORNIA CORRECTIONAL INSTUTUTION,CALIFORNIA CORRECTIONAL INST.-TEHACHAPI,24900 STATE ROUTE 202,TEHACHAPI,CA,93561,92214,35.11543,-118.56737,SO2,Sulfur Dioxide,CAP,TON,0.07507
CENTRAL MARIN SANITATION AGENCY,CENTRAL MARIN SANITATION AGENCY,"ANDERSEN DRIVE, EAST END",SAN RAFAEL,CA,94901,221320,37.947214,-122.494198,SO2,Sulfur Dioxide,CAP,TON,0.039846787
RHODWORK,RHODWORK,35 BAY STREET,SAN RAFAEL,CA,94901,811121,37.965161,-122.513816,SO2,Sulfur Dioxide,CAP,TON,6.2495e-5
MOUNT TAMALPAIS CEMETERY AND MORTUARY,MOUNT TAMALPAIS CEMETERY AND MORTUARY,2500 5TH AVENUE,SAN RAFAEL,CA,94901,812210,37.987152,-122.554894,SO2,Sulfur Dioxide,CAP,TON,4.50107e-4
"HUNTINGTON BEACH CITY, WATER DEPT","HUNTINGTON BEACH CITY, WATER DEPT",16221  GOTHARD ST,HUNTINGTON BEACH,CA,92648,221310,33.72684,-118.00056,SO2,Sulfur Dioxide,CAP,TON,0.00387
ST JUDE MEDICAL CENTER,ST JUDE MEDICAL CENTER,101 E VALENCIA MESA DR,FULLERTON,CA,92835,622110,33.89435,-117.92722,SO2,Sulfur Dioxide,CAP,TON,0.0417639
TIODIZE CO INC,TIODIZE CO INC,15701  INDUSTRY LN,HUNTINGTON BEACH,CA,92649,311942,33.73433,-118.03393,SO2,Sulfur Dioxide,CAP,TON,7.381e-5
CALIFORNIA ARMY NATIONAL GUARD,CALIFORNIA ARMY NATIONAL GUARD,4411  YORKTOWN AVE BLDG.6.SUITE 22,LOS ALAMITOS,CA,90720,928110,33.79491,-118.05594,SO2,Sulfur Dioxide,CAP,TON,5.8049e-4
MCP FOODS INC,MCP FOODS INC,424-25 S ATCHISON ST,ANAHEIM,CA,92805,311930,33.83351,-117.90545,SO2,Sulfur Dioxide,CAP,TON,0.016769845
ORANGE COUNTY SANITATION DISTRICT,ORANGE COUNTY SANITATION DISTRICT,22212  BROOKHURST ST,HUNTINGTON BEACH,CA,92646,221320,33.63832,-117.95836,SO2,Sulfur Dioxide,CAP,TON,0.15094466
BODYCOTE THERMAL PROCESSING,BODYCOTE THERMAL PROCESSING,7474  GARDEN GROVE BLVD,WESTMINSTER,CA,92683,332811,33.7725,-118.001,SO2,Sulfur Dioxide,CAP,TON,0.026281
UCI MEDICAL CENTER,UCI MEDICAL CENTER,101  THE CITY DR ROUTE 104,ORANGE,CA,92868,621111,33.7881,-117.8901,SO2,Sulfur Dioxide,CAP,TON,0.0320290166
MISSION VALLEY ROCK CO,MISSION VALLEY ROCK CO,7999 ATHENOUR WAY,SUNOL,CA,94586,423320,37.572995,-121.882005,SO2,Sulfur Dioxide,CAP,TON,0.049561654
EVERGREEN CEMETERY,EVERGREEN CEMETERY,6450 CAMDEN STREET,OAKLAND,CA,94605,812210,37.76954,-122.18041,SO2,Sulfur Dioxide,CAP,TON,0.1165408
VERIZON WIRELESS,VERIZON WIRELESS (ORLAND BUTTES),NORTH RD 25,ORLAND,CA,95963,517112,39.744363,-122.328876,SO2,Sulfur Dioxide,CAP,TON,4.94208e-4
SIERRA NEVADA CHEESE CO.,SIERRA NEVADA CHEESE CO.,6505 COUNTY ROAD 39,WILLOWS,CA,95988,311514,39.608336,-122.191572,SO2,Sulfur Dioxide,CAP,TON,1.196e-5
"SYNAGRO WWT, INC.","SYNAGRO WWT, INC.",12421 HOLLOWAY RD,LOST HILLS,CA,93249,325314,35.699861,-119.81803,SO2,Sulfur Dioxide,CAP,TON,1.95e-4
ELK CORP OF TEXAS,ELK CORP OF TEXAS,6200 ZERKER RD,SHAFTER,CA,93263,324122,35.495281,-119.167474,SO2,Sulfur Dioxide,CAP,TON,0.183164
NEWPORT BEACH CITY - UTILITIES DEPT,NEWPORT BEACH CITY - UTILITIES DEPT,5800 W COAST HIGHWAY,NEWPORT BEACH,CA,92663,926130,33.6266,-117.9464,SO2,Sulfur Dioxide,CAP,TON,8.78e-4
ALUMINUM PRECISION PRODUCTS INC,ALUMINUM PRECISION PRODUCTS INC,2621 S SUSAN ST,SANTA ANA,CA,92704,331524,33.713039,-117.912699,SO2,Sulfur Dioxide,CAP,TON,0.024569
SO ORANGE CO. WASTEWATER AUTHORITY,SO ORANGE CO. WASTEWATER AUTHORITY,34156  DEL OBISPO ST,DANA POINT,CA,92629,221320,33.46683,-117.68496,SO2,Sulfur Dioxide,CAP,TON,0.0800236645
"NEWPORT BEACH CITY, CITY YARD","NEWPORT BEACH CITY, CITY YARD",592  SUPERIOR AVE,NEWPORT BEACH,CA,92663,493110,33.61994,-117.93102,SO2,Sulfur Dioxide,CAP,TON,1.51e-5
TAYLOR-DUNN MFG CO,TAYLOR-DUNN MFG CO,2114 W BALL RD,ANAHEIM,CA,92804,333924,33.817773,-117.955263,SO2,Sulfur Dioxide,CAP,TON,2.74e-4
SGL TECHNIC LLC,SGL TECHNIC LLC,28176 N AVENUE STANFORD,VALENCIA,CA,91355,327992,34.4359,-118.58946,SO2,Sulfur Dioxide,CAP,TON,0.0037563
"TOYOTA LOGISTICS SERVICES, INC","TOYOTA LOGISTICS SERVICES, INC",2140  PIER B ST,LONG BEACH,CA,90813,441110,33.77953,-118.21911,SO2,Sulfur Dioxide,CAP,TON,4.716e-4
KANAFLEX CORP,KANAFLEX CORP,750 W MANVILLE ST,COMPTON,CA,90220,326220,33.86933,-118.23494,SO2,Sulfur Dioxide,CAP,TON,1.82e-5
EMERALD PACKAGING INC,EMERALD PACKAGING INC,33050 WESTERN AVENUE,UNION CITY,CA,94587,322220,37.598996,-122.03178,SO2,Sulfur Dioxide,CAP,TON,0.008796757
WASHINGTON HOSPITAL,WASHINGTON HOSPITAL,2000 MOWRY AVENUE,FREMONT,CA,94538,622110,37.555774,-121.979955,SO2,Sulfur Dioxide,CAP,TON,0.032532262
EAST BAY MUNICIPAL UTILITY DIST,EAST BAY MUNICIPAL UTILITY DIST,1200 21ST STREET,OAKLAND,CA,94607,221310,37.813196,-122.284777,SO2,Sulfur Dioxide,CAP,TON,6.3699e-5
ALAMEDA COUNTY WATER DISTRICT,ALAMEDA COUNTY WATER DISTRICT,42436 MISSION BLVD,FREMONT,CA,94539,221310,37.539526,-121.924396,SO2,Sulfur Dioxide,CAP,TON,4.2964e-5
BERKELEY FORGE & TOOL INC,BERKELEY FORGE & TOOL INC,1331 EASTSHORE HWY,BERKELEY,CA,94710,324199,37.875762,-122.305424,SO2,Sulfur Dioxide,CAP,TON,0.00359675
CHAPEL OF THE CHIMES MEMORIAL PARK & FUNERAL HOME,CHAPEL OF THE CHIMES MEMORIAL PARK & FUNERAL HOME,32992 MISSION BLVD,HAYWARD,CA,94544,812210,37.609912,-122.023152,SO2,Sulfur Dioxide,CAP,TON,2.45903e-4
NASA DRYDEN FLIGHT RESEARCH CR,NASA DRYDEN FLIGHT RESEARCH CR,"BUILDING 4872, 4820, & 192",EDWARDS,CA,93523,927110,34.95019,-117.88698,SO2,Sulfur Dioxide,CAP,TON,0.190915
SENECA RESOURCES CORPORATION,SENECA RESOURCES,HEAVY OIL WESTERN,KERN COUNTY,CA,93224,211120,35.223819,-119.58953,SO2,Sulfur Dioxide,CAP,TON,0.001588
DOUBLE C LIMITED,DOUBLE C LIMITED,"10245 OILFIELD RD, HEAVY OIL CENTRAL",BAKERSFIELD,CA,93308,221112,35.496232,-119.045984,SO2,Sulfur Dioxide,CAP,TON,0.01101
NAFTEX OPERATING CO,NAFTEX OPERATING CO,"HEAVY OIL CENTRAL, PO BOX 308",EDISON,CA,93314,211130,35.373181,-118.850199,SO2,Sulfur Dioxide,CAP,TON,6.7e-4
CHEVRON USA INC,CHEVRON USA INC,HEAVY OIL PRODUCTION,KERN COUNTY,CA,93312,211130,35.354129,-119.66022,SO2,Sulfur Dioxide,CAP,TON,22.569960488
AERA ENERGY LLC,AERA ENERGY LLC,HEAVY OIL WESTERN,KERN COUNTY,CA,93308,211120,35.025288,-119.28667,SO2,Sulfur Dioxide,CAP,TON,1.762849342
THE TERMO CO,THE TERMO CO,LIGHT OIL CENTRAL,KERN COUNTY,CA,90801,211120,35.214311,-118.868298,SO2,Sulfur Dioxide,CAP,TON,0.00294
CHEVRON USA INC,CHEVRON USA INC,HEAVY OIL WESTERN,KERN COUNTY,CA,93224,211130,35.2157,-119.5982,SO2,Sulfur Dioxide,CAP,TON,1.33963353
NESTLE PURINA PETCARE COMPANY,NESTLE PURINA PETCARE COMPANY,1710 ELKHORN CAT RD,MARICOPA,CA,93252,212323,35.053284,-119.445164,SO2,Sulfur Dioxide,CAP,TON,0.11994
"SENECA RESOURCES COMPANY, LLC","SENECA RESOURCES COMPANY, LLC",SOUTH BELRIDGE GAS PLANT - S19 T28S R21E,MCKITTRICK,CA,93251,211130,35.475498,-119.75101,SO2,Sulfur Dioxide,CAP,TON,0.0234965
BADGER CREEK LIMITED,BADGER CREEK LIMITED,"535 FANO RD, HEAVY OIL CENTRAL",BAKERSFIELD,CA,93308,221122,35.483724,-119.029933,SO2,Sulfur Dioxide,CAP,TON,0.0182
CALIFORNIA RESOURCES PRODUCTION CORP,CALIFORNIA RESOURCES PRODUCTION CORP.,HEAVY OIL WESTERN,KERN COUNTY,CA,93224,211130,35.47031,-119.0294,SO2,Sulfur Dioxide,CAP,TON,0.00305
HUNTER EDISON OIL DEVELOPMENT C/O VAQUERO ENERGY,HUNTER EDISON OIL DEVELOPMENT,HEAVY OIL CENTRAL,BAKERSFIELD,CA,93309,211120,35.31602,-118.81399,SO2,Sulfur Dioxide,CAP,TON,0.1775597
BERRY PETROLEUM COMPANY LLC,BERRY PETROLEUM COMPANY LLC,LIGHT OIL WESTERN,KERN COUNTY,CA,93224,211120,35.470006,-119.761105,SO2,Sulfur Dioxide,CAP,TON,0.0251
"PACIFIC PIPELINE SYSTEM, LLC","PACIFIC PIPELINE SYSTEM, LLC",KELLEY PUMP STATION,METTLER,CA,93313,486110,35.025348,-119.055051,SO2,Sulfur Dioxide,CAP,TON,0.0244
"PACIFIC PIPELINE SYSTEM, LLC","PACIFIC PIPELINE SYSTEM, LLC",TEJON PUMP STATION,LEBEC,CA,93243,486110,34.879876,-118.90144,SO2,Sulfur Dioxide,CAP,TON,2.81e-6
ENCOMPASS HEALTH REHABILITATION HOSPITAL OF BAKERSFIELD,ENCOMPASS HEALTH REHABILITATION HOSPITAL OF BAKERSFIELD,5001 COMMERCE DR,BAKERSFIELD,CA,93309,622110,35.367339,-119.05744,SO2,Sulfur Dioxide,CAP,TON,2.068e-4
DELTA TRADING L P,DELTA TRADING L P,17731 MILLUX RD-PALOMA BLENDING FACILITY,BAKERSFIELD,CA,93313,486110,35.17251,-119.15445,SO2,Sulfur Dioxide,CAP,TON,0.0874408
TORRANCE VALLEY PIPELINE COMPANY LLC,TORRANCE VALLEY PIPELINE COMPANY LLC,PENTLAND PUMPING STATION,KERN COUNTY,CA,93224,486110,35.081761,-119.32182,SO2,Sulfur Dioxide,CAP,TON,0.0648
C.F. KOEHNEN & SONS INC.,C.F. KOEHNEN & SONS INC.,3131 HIGHWAY 45,GLENN,CA,95943,311119,39.6339,-122.00827,SO2,Sulfur Dioxide,CAP,TON,0.024
PACTIV LLC,PACTIV LLC,2024 NORRIS RD,BAKERSFIELD,CA,93308,326150,35.423102,-119.05939,SO2,Sulfur Dioxide,CAP,TON,0.0069477
"HORIZON NUT, LLC","HORIZON NUT, LLC",HIGHWAY 46 & HIGHWAY 33,LOS HILLS,CA,93249,115114,35.614946,-119.867604,SO2,Sulfur Dioxide,CAP,TON,0.2016548
NOVATO SANITARY DISTRICT,NOVATO SANITARY DISTRICT,500 DAVIDSON STREET,NOVATO,CA,94947,221320,38.098908,-122.554229,SO2,Sulfur Dioxide,CAP,TON,0.431859753
NOVATO SANITARY DISTRICT,NOVATO SANITARY DISTRICT,445 BEL MARIN KEYS BLVD,NOVATO,CA,94947,221320,38.074315,-122.536239,SO2,Sulfur Dioxide,CAP,TON,4.65e-7
JERRY THOMPSON & SONS PAINTING INC,JERRY THOMPSON & SONS PAINTING INC,3 SIMMS STREET,SAN RAFAEL,CA,94901,237310,37.958228,-122.504709,SO2,Sulfur Dioxide,CAP,TON,1.489e-6
SEWERAGE AGENCY OF S MARIN/CITY OF MILL VALLEY,SEWERAGE AGENCY OF S MARIN/CITY OF MILL VALLEY,6000 SHELTER BAY AVENUE,MILL VALLEY,CA,94941,921190,37.890249,-122.519929,SO2,Sulfur Dioxide,CAP,TON,1.1545e-5
SAINT JOSEPH HOSPITAL,SAINT JOSEPH HOSPITAL,1100 W STEWART DR,ORANGE,CA,92868,622110,33.78204,-117.86542,SO2,Sulfur Dioxide,CAP,TON,0.0332458
MARUCHAN INC,MARUCHAN INC,1902  DEERE AVE,IRVINE,CA,92606,311824,33.69866,-117.84158,SO2,Sulfur Dioxide,CAP,TON,0.050286
THERMECH ENG CORP,THERMECH ENG CORP,1773 W LINCOLN AVE BLDG G-L,ANAHEIM,CA,92801,322220,33.83278,-117.94501,SO2,Sulfur Dioxide,CAP,TON,2.117e-4
"CALIFORNIA STATE UNIVERSITY, FULLERTON","CALIFORNIA STATE UNIVERSITY, FULLERTON",800 N STATE COLLEGE BLVD,FULLERTON,CA,92831,611310,33.87976,-117.889626,SO2,Sulfur Dioxide,CAP,TON,0.020689012
OLSON MEAT COMPANY,OLSON MEAT COMPANY,7305 CUTLER AVE.,ORLAND,CA,95963,311611,39.788834,-122.108878,SO2,Sulfur Dioxide,CAP,TON,1.984094
HYTECH PROCESSING,HYTECH PROCESSING,700  CENTINELA,INGLEWOOD,CA,90302,332813,33.97475,-118.35099,SO2,Sulfur Dioxide,CAP,TON,1.26e-4
US BORAX INC,US BORAX INC,300  FALCON ST,WILMINGTON,CA,90744,325180,33.757915,-118.266661,SO2,Sulfur Dioxide,CAP,TON,0.03985
TORRANCE LOGISTICS COMPANY LLC,TORRANCE LOGISTICS COMPANY LLC,2619 & 2709 E. 37TH ST,VERNON,CA,90058,488999,34.00897,-118.22557,SO2,Sulfur Dioxide,CAP,TON,0.0056118
"AMERICAN AIRLINES, INC,","AMERICAN AIRLINES, INC,",7260  WORLD WAY WEST,LOS ANGELES,CA,90045,481111,33.942699,-118.413205,SO2,Sulfur Dioxide,CAP,TON,0.009124165
"UNIVERSAL CITY STUDIOS, LLC.","UNIVERSAL CITY STUDIOS, LLC.",3900  LANKERSHIM BLVD,UNIVERSAL CITY,CA,91608,512110,34.134785,-118.353749,SO2,Sulfur Dioxide,CAP,TON,0.088255136
UNIV OF SO CAL (EIS & NSR USE ONLY),UNIV OF SO CAL (EIS & NSR USE ONLY),MCCLINTOCK W 34TH CHILDS ST,LOS ANGELES,CA,90089,611310,34.01949,-118.290649,SO2,Sulfur Dioxide,CAP,TON,0.09541959038
LA CO HARBOR-UCLA MEDICAL CENTER,LA CO HARBOR-UCLA MEDICAL CENTER,1000 W CARSON ST,TORRANCE,CA,90502,622110,33.83084,-118.29241,SO2,Sulfur Dioxide,CAP,TON,0.03052554
THE AEROSPACE CORP,THE AEROSPACE CORP,277  CORAL CIR,EL SEGUNDO,CA,90245,541715,33.913163,-118.384366,SO2,Sulfur Dioxide,CAP,TON,0.023536989
TIDELANDS OIL PRODUCTION CO,TIDELANDS OIL PRODUCTION CO,949  PIER G AVE,LONG BEACH,CA,90802,211130,33.75268,-118.20419,SO2,Sulfur Dioxide,CAP,TON,0.00626109
THUMS LONG BEACH,THUMS LONG BEACH,1105  HARBOR SCENIC DR PIERS J1-J6,LONG BEACH,CA,90802,211130,33.75239,-118.19466,SO2,Sulfur Dioxide,CAP,TON,0.005873507
"LA CITY, DEPT OF AIRPORTS","LA CITY, DEPT OF AIRPORTS",275  CENTER WAY,LOS ANGELES,CA,90045,488190,33.94405,-118.40419,SO2,Sulfur Dioxide,CAP,TON,0.190918844
SPECIALTY PAPER MILLS INC,SPECIALTY PAPER MILLS INC,8834-44  MILLER GROVE DR,SANTA FE SPRINGS,CA,90670,322211,33.93735,-118.07369,SO2,Sulfur Dioxide,CAP,TON,0.01881
HUNTINGTON MEMORIAL HOSPITAL,HUNTINGTON MEMORIAL HOSPITAL,100 W CALIFORNIA BLVD,PASADENA,CA,91105,622110,34.135772,-118.152369,SO2,Sulfur Dioxide,CAP,TON,0.06060380315
IPS CORPORATION,IPS CORPORATION,17109 S MAIN ST,GARDENA,CA,90248,325520,33.876,-118.276,SO2,Sulfur Dioxide,CAP,TON,0.00247
"EQUILON ENTER. LLC, SHELL OIL PROD. US","EQUILON ENTER. LLC, SHELL OIL PROD. US",20945 S WILMINGTON,CARSON,CA,90810,424710,33.83951,-118.23682,SO2,Sulfur Dioxide,CAP,TON,0.12279374
PORT OF OAKLAND,PORT OF OAKLAND,#1 AIRPORT DRIVE,OAKLAND,CA,94621,488111,37.722035,-122.20011,SO2,Sulfur Dioxide,CAP,TON,4.60316e-4
EAST BAY FIXTURE COMPANY,EAST BAY FIXTURE COMPANY,941 AILEEN STREET,OAKLAND,CA,94608,423310,37.839095,-122.27522,SO2,Sulfur Dioxide,CAP,TON,2.73481e-4
"VULCAN MATERIALS, WESTERN DIVISION","VULCAN MATERIALS, WESTERN DIVISION",52 EL CHARRO ROAD,PLEASANTON,CA,94588,324121,37.672957,-121.828007,SO2,Sulfur Dioxide,CAP,TON,0.042043288
LONZA HAYWARD,LONZA HAYWARD,1978 W WINTON AVE,HAYWARD,CA,94545,325412,37.651199,-122.128649,SO2,Sulfur Dioxide,CAP,TON,1.2515e-5
LAWRENCE BERKELEY NATIONAL LABORATORY,LAWRENCE BERKELEY NATIONAL LABORATORY,ONE CYCLOTRON ROAD,BERKELEY,CA,94720,541715,37.87743,-122.25088,SO2,Sulfur Dioxide,CAP,TON,0.009611149
PACIFIC BELL,PACIFIC BELL,4073 ADAMS AVENUE,FREMONT,CA,94538,517111,37.527622,-121.958779,SO2,Sulfur Dioxide,CAP,TON,7.0734e-5
ALAMEDA HEALTH SYSTEM - FAIRMONT HOSPITAL,ALAMEDA HEALTH SYSTEM - FAIRMONT HOSPITAL,15400 FOOTHILL BOULEVARD,SAN LEANDRO,CA,94578,622110,37.707745,-122.118696,SO2,Sulfur Dioxide,CAP,TON,0.001205511
CALIFORNIA HYDRONICS CORP,CALIFORNIA HYDRONICS CORP,2293 TRIPALDI WAY,HAYWARD,CA,94545,332812,37.613191,-122.084757,SO2,Sulfur Dioxide,CAP,TON,6.75e-7
SAN JOAQUIN FACILITIES MGMT,SAN JOAQUIN FACILITIES MGMT,HEAVY OIL CENTRAL,KERN COUNTY,CA,93224,211120,35.37425,-119.04666,SO2,Sulfur Dioxide,CAP,TON,0.663585
"VAQUERO ENERGY, INC.","VAQUERO ENERGY, INC.",HEAVY OIL CENTRAL,KERN COUNTY,CA,93224,211120,35.30204,-118.83314,SO2,Sulfur Dioxide,CAP,TON,0.01091122
VAQUERO ENERGY INC,VAQUERO ENERGY INC,LIGHT OIL CENTRAL,KERN COUNTY,CA,93224,211120,35.18529,-118.85017,SO2,Sulfur Dioxide,CAP,TON,0.003336
PHILLIPS 66 PIPELINE LLC,PHILLIPS 66 PIPELINE LLC,"JUNCTION PUMP STATION, 14990 HWY 46",LOST HILLS,CA,94249,486110,35.646765,-119.95585,SO2,Sulfur Dioxide,CAP,TON,0.1655
VULCAN MATERIALS COMPANY,CALMAT OF CENTRAL CALIFORNIA,16101 HIGHWAY 166,BAKERSFIELD,CA,93311,212321,35.038812,-119.179295,SO2,Sulfur Dioxide,CAP,TON,1e-4
AERA ENERGY LLC,AERA ENERGY LLC,BELRIDGE GAS PLANT,KERN COUNTY,CA,93224,211130,35.451334,-119.719288,SO2,Sulfur Dioxide,CAP,TON,0.9646075
AERA ENERGY LLC,AERA ENERGY LLC,HEAVY OIL WESTERN,KERN COUNTY,CA,93308,211130,35.377482,-119.688445,SO2,Sulfur Dioxide,CAP,TON,55.225671962
AERA ENERGY LLC,AERA ENERGY LLC,LIGHT OIL WESTERN,KERN COUNTY,CA,93224,211120,35.60685,-119.715725,SO2,Sulfur Dioxide,CAP,TON,0.8483669
LARSON FOOD STORE,LARSON FOOD STORE,720 WIBLE RD,BAKERSFIELD,CA,93304,457110,35.347634,-119.038657,SO2,Sulfur Dioxide,CAP,TON,0.00936444
GRANITE CONSTRUCTION COMPANY,GRANITE CONSTRUCTION COMPANY,3001 JAMES RD,BAKERSFIELD,CA,93308,212321,35.472,-119.071,SO2,Sulfur Dioxide,CAP,TON,0.2581875
GRANITE CONSTRUCTION COMPANY,GRANITE CONSTRUCTION COMPANY,"HWY 223, 3 MILES EAST OF ARVIN",BAKERSFIELD,CA,93314,212321,35.200071,-118.758159,SO2,Sulfur Dioxide,CAP,TON,0.00233
E&B NATURAL RESOURCE,E&B NATURAL RESOURCES MGMT,HEAVY OIL CENTRAL,KERN COUNTY,CA,93224,211130,35.521911,-119.09071,SO2,Sulfur Dioxide,CAP,TON,0.33577
HOLMES WESTERN OIL CORP,HOLMES WESTERN OIL CORP,HEAVY OIL WESTERN,KERN COUNTY,CA,93224,211120,35.008609,-119.338607,SO2,Sulfur Dioxide,CAP,TON,0.8217522
SENECA RESOURCES,SENECA RESOURCES,LIGHT OIL WESTERN,KERN COUNTY,CA,93224,211130,35.563341,-119.697884,SO2,Sulfur Dioxide,CAP,TON,0.25189
TAFT MANUFACTURING LLC,TAFT MANUFACTURING LLC,19815 S LAKE RD,TAFT,CA,93268,325320,35.145,-119.2385,SO2,Sulfur Dioxide,CAP,TON,0.1109085
KERN COUNTY HOSPITAL AUTHORITY,KERN COUNTY HOSPITAL AUTHORITY,1830 FLOWER ST,BAKERSFIELD,CA,93306,622110,35.382175,-118.971971,SO2,Sulfur Dioxide,CAP,TON,0.1656679
MACPHERSON OIL COMPANY,MACPHERSON OIL COMPANY,HEAVY OIL CENTRAL STATIONARY SOURCE,KERN COUNTY,CA,93224,211120,35.513841,-118.901299,SO2,Sulfur Dioxide,CAP,TON,1.8011498
MISH FUNERAL HOMES,MISH FUNERAL HOMES,120 MINNER AVE,OILDALE,CA,93308,812220,35.415491,-119.022703,SO2,Sulfur Dioxide,CAP,TON,0.00154
LIVE OAK LIMITED,LIVE OAK LIMITED,"7001 GRANITE RD., HEAVY OIL",BAKERSFIELD,CA,93308,221122,35.496231,-119.009053,SO2,Sulfur Dioxide,CAP,TON,0.0201
CALIFORNIA RESOURCES PRODUCTION CORP.,CALIFORNIA RESOURCES PRODUCTION CORP.,LIGHT OIL WESTERN,KERN COUNTY,CA,93224,211130,35.018892,-119.17123,SO2,Sulfur Dioxide,CAP,TON,0.01483
PYRENEES FRENCH BAKERY INC,PYRENEES FRENCH BAKERY INC,717 E 21ST ST,BAKERSFIELD,CA,93385,311812,35.375623,-118.99293,SO2,Sulfur Dioxide,CAP,TON,1.35e-6
SOUTHERN CALIF GAS CO WHEELER RIDGE STATION,SOUTHERN CALIF GAS CO,9530 HWY 166,METTLER,CA,93314,486210,35.063839,-119.026251,SO2,Sulfur Dioxide,CAP,TON,0.5199332
CAL STATE UNIVERSITY BAKERSFIELD - ADM 37,CAL STATE UNIVERSITY BAKERSFLD,9001 STOCKDALE HWY,BAKERSFIELD,CA,93311,611310,35.3542,-119.1028,SO2,Sulfur Dioxide,CAP,TON,1.866e-6
BENZ GAS & FOOD DBA INDIE CO,INDIE CO,100 S OSWELL ST,BAKERSFIELD,CA,93307,457120,35.354064,-118.950064,SO2,Sulfur Dioxide,CAP,TON,0.00936444
BEAR MOUNTAIN LIMITED,BEAR MOUNTAIN LIMITED,"7001 CAMINO GRANDE DR., HEAVY OIL CENTRAL",BAKERSFIELD,CA,93308,221122,35.419205,-118.92654,SO2,Sulfur Dioxide,CAP,TON,0.039936
HAPPY GAS & MINI MART,HAPPY GAS & MINI MART,3221 TAFT HWY  WIBLE RD,BAKERSFIELD,CA,93313,457110,35.26676,-119.038059,SO2,Sulfur Dioxide,CAP,TON,0.00936444
"FRITO-LAY, INC.","FRITO-LAY, INC.",28801 HIGHWAY 58,BAKERSFIELD,CA,93314,311919,35.39605,-119.32138,SO2,Sulfur Dioxide,CAP,TON,0.3584442
"SUPERIOR SOIL SUPPLEMENTS, LLC","SUPERIOR SOIL SUPPLEMENTS, LLC",1040 H ST,WASCO,CA,93280,212114,35.59017,-119.33071,SO2,Sulfur Dioxide,CAP,TON,1.06e-6
SJV QUALITY COTTON,SJV QUALITY COTTON,17053 N SHAFTER AVE,SHAFTER,CA,93263,611310,35.532601,-119.278094,SO2,Sulfur Dioxide,CAP,TON,0.00126
NESTLE DREYERS ICE CREAM,NESTLE DREYERS ICE CREAM,7301 DISTRICT BLVD,BAKERSFIELD,CA,93313,311520,35.312984,-119.083472,SO2,Sulfur Dioxide,CAP,TON,4.246e-4
GOLDEN STATE VINTNERS/FRANZIA-MCFARLAND,GOLDEN STATE VINTNERS/FRANZIA-MCFARLAND,31795 WHISLER RD,MCFARLAND,CA,93250,312130,35.645428,-119.222455,SO2,Sulfur Dioxide,CAP,TON,0.00408
CABALLERO OPERATIONS LLC.,CABALLERO OPERATIONS LLC.,LIGHT OIL CENTRAL,KERN COUNTY,CA,93387,211120,35.28669,-118.90459,SO2,Sulfur Dioxide,CAP,TON,6.47e-6
MARSHALL E HELM CORP,MARSHALL E HELM CORP,2739 PANAMA LANE,BAKERSFIELD,CA,93305,812220,35.295666,-119.032327,SO2,Sulfur Dioxide,CAP,TON,0.00185
"PLASTICOLOR MOLDED PRODUCTS, INC","PLASTICOLOR MOLDED PRODUCTS, INC",801 S ACACIA AVE,FULLERTON,CA,92831,336390,33.86258,-117.89909,SO2,Sulfur Dioxide,CAP,TON,0.0011835
NEUTRON PLATING INC,NEUTRON PLATING INC,2993 E BLUE STAR ST,ANAHEIM,CA,92806,332813,33.85149,-117.86249,SO2,Sulfur Dioxide,CAP,TON,9.8e-4
TRIMAC TRANSPORTATION INC,TRIMAC TRANSPORTATION INC,3751 BREAKWATER AVE,HAYWARD,CA,94545,811192,37.626728,-122.120197,SO2,Sulfur Dioxide,CAP,TON,4.48428e-4
BAY AREA BODYSHOP,BAY AREA BODYSHOP,38472 CEDAR BLVD,NEWARK,CA,94560,811121,37.530579,-122.008139,SO2,Sulfur Dioxide,CAP,TON,2.7059e-5
VALLEYCARE MEDICAL CENTER,VALLEYCARE MEDICAL CENTER,5555 W LAS POSITAS BLVD,PLEASANTON,CA,94588,622110,37.690785,-121.878107,SO2,Sulfur Dioxide,CAP,TON,0.005266849
COFFEE MARKET,COFFEE MARKET,1578 HOPKINS STREET,BERKELEY,CA,94707,311920,37.881885,-122.281885,SO2,Sulfur Dioxide,CAP,TON,6.499e-6
ALAMEDA COUNTY GSA,ALAMEDA COUNTY GSA,5325 BRODER BLVD,DUBLIN,CA,94568,922140,37.715301,-121.888708,SO2,Sulfur Dioxide,CAP,TON,0.027784885
BAKERSFIELD CITY LANDFILL,BAKERSFIELD CITY LANDFILL,4200 PANORAMA DR,BAKERSFIELD,CA,93306,562212,35.4142,-118.9491,SO2,Sulfur Dioxide,CAP,TON,8.81e-4
SIX JEWELS,SIX JEWELS,6692 S PEACH,FRESNO,CA,93725,311999,36.636597,-119.717522,SO2,Sulfur Dioxide,CAP,TON,1.1115
PENNYWISE,PENNYWISE,4805 E SHIELDS,FRESNO,CA,93726,457110,36.779684,-119.735755,SO2,Sulfur Dioxide,CAP,TON,0.00936444
SIMONIAN FRUIT COMPANY,SIMONIAN FRUIT COMPANY,350 N SEVENTH ST,FOWLER,CA,93625,311119,36.628362,-119.683281,SO2,Sulfur Dioxide,CAP,TON,0.36247
CALIFORNIA RESOURCES PRODUCTION CORP,CALIFORNIA RESOURCES PRODUCTION CORP,LIGHT OIL PRODUCTION,FRESNO COUNTY,CA,93656,211120,36.464369,-120.039101,SO2,Sulfur Dioxide,CAP,TON,0.00143
F COLAVITA & SON,F COLAVITA & SON,5054 PORTOLA WAY,DEL REY,CA,93616,311941,36.662138,-119.597101,SO2,Sulfur Dioxide,CAP,TON,0.437
FAST N ESY #11,FAST N ESY #11,5687 E KINGS CANYON,FRESNO,CA,93727,457120,36.736226,-119.695152,SO2,Sulfur Dioxide,CAP,TON,0.00936444
GUSMER INTERPRISES INC,GUSMER ENTERPRISES INC,124 M ST,FRESNO,CA,93721,325130,36.727857,-119.77697,SO2,Sulfur Dioxide,CAP,TON,0.0309
SAINT AGNES MEDICAL CENTER,SAINT AGNES MEDICAL CENTER,1111 E SPRUCE,FRESNO,CA,93720,622110,36.841244,-119.763378,SO2,Sulfur Dioxide,CAP,TON,1.17e-6
WONDERFUL PISTACHIOS & ALMONDS,WONDERFUL PISTACHIOS & ALMONDS,39840 EL DORADO AVE,COALINGA,CA,93210,115114,36.154352,-120.210416,SO2,Sulfur Dioxide,CAP,TON,0.0175855
ROSENBALM ROCKERY,ROSENBALM ROCKERY,1745 N HUGHES AVE,FRESNO,CA,93705,327320,36.766062,-119.835769,SO2,Sulfur Dioxide,CAP,TON,1.02e-5
NOR MUNICIPAL WATER DISTRICT,NOR MUNICIPAL WATER DISTRICT,4000 RIO DEL NORTE ST,BAKERSFIELD,CA,93308,221310,35.441888,-119.03313,SO2,Sulfur Dioxide,CAP,TON,0.0131653
BKSFLD CTY C/O CAL WATER SERV,BAKERSFIELD CITY C/O CAL WATER,3713 STINE RD,BAKERSFIELD,CA,93309,221310,35.319985,-119.056697,SO2,Sulfur Dioxide,CAP,TON,1.707e-5
ROYAL WINE BAKERSFIELD,ROYAL WINE BAKERSFIELD,11220 EDISON HWY,BAKERSFIELD,CA,93306,312130,35.352288,-118.884089,SO2,Sulfur Dioxide,CAP,TON,0.043263
FARMERS COOP GIN INC,FARMERS COOP GIN INC,HIGHWAY 58 & WASCO WAY,BUTTONWILLOW,CA,93206,115111,35.397901,-119.44576,SO2,Sulfur Dioxide,CAP,TON,0.0102
WONDERFUL PISTACHIOS & ALMONDS,WONDERFUL PISTACHIOS & ALMONDS,10429 KING RD,LOST HILLS,CA,93249,311119,35.7643,-119.8678,SO2,Sulfur Dioxide,CAP,TON,0.026355
CHALK CLIFF LIMITED,CHALK CLIFF LIMITED,"29041 HWY 33, HEAVY OIL WESTERN",BAKERSFIELD,CA,93308,221121,35.0968,-119.4299,SO2,Sulfur Dioxide,CAP,TON,0.012
"GRADE 6 OIL, LLC - KRH","GRADE 6 OIL, LLC - KRH",HEAVY OIL CENTRAL,"SEC6,T29S,R28E",CA,93314,211120,35.437324,-119.007988,SO2,Sulfur Dioxide,CAP,TON,1.6615785
COVANTA DELANO INC,COVANTA DELANO INC,31500 POND RD,DELANO,CA,93216,221122,35.7198,-119.2337,SO2,Sulfur Dioxide,CAP,TON,3.18e-6
WESTERN MILLING LLC,WESTERN MILLING LLC,15290 C ST (HIGHWAY 99 & 46),MCFARLAND,CA,93250,493130,35.59795,-119.20774,SO2,Sulfur Dioxide,CAP,TON,0.146960449
CA DEPT OF WATER RESOURCES,DEPT WATER RESOURCES-LOST HILLS,HIGHWAY 46 & FARNSWORTH,LOST HILLS,CA,93249,221310,35.616101,-119.694297,SO2,Sulfur Dioxide,CAP,TON,1.34e-5
DEPT OF CORREC-ACCNTING OFFICE,CAL DEPT OF CORRECTIONS DELANO,2737 W CECIL AVE,DELANO,CA,93215,922140,35.782833,-119.309718,SO2,Sulfur Dioxide,CAP,TON,3.653e-4
THE BOEING COMPANY,THE BOEING COMPANY,5301  BOLSA AVE,HUNTINGTON BEACH,CA,92647,336411,33.744487,-118.036271,SO2,Sulfur Dioxide,CAP,TON,0.01465655
ORANGE COUNTY SANITATION DISTRICT,ORANGE COUNTY SANITATION DISTRICT,10844  ELLIS AVE,FOUNTAIN VALLEY,CA,92708,221320,33.6907,-117.9419,SO2,Sulfur Dioxide,CAP,TON,0.028460395
JOHN WAYNE AIRPORT,JOHN WAYNE AIRPORT,18601 AIRPORT WAY,SANTA ANNA,CA,92707,488119,33.67555,-117.86833,SO2,Sulfur Dioxide,CAP,TON,18.892577509
FULLERTON MUNI AIRPORT,FULLERTON MUNI AIRPORT,4011 W COMMONWEALTH AVE,FULLERTON,CA,92833,488119,33.872,-117.98,SO2,Sulfur Dioxide,CAP,TON,0.680670618
MARTIN LUTHER KING JR MEDICAL CAMPUS,MARTIN LUTHER KING JR MEDICAL CAMPUS,12021 S WILMINGTON AVE,LOS ANGELES,CA,90059,622110,33.92397,-118.2394,SO2,Sulfur Dioxide,CAP,TON,0.013268
OCCIDENTAL COLLEGE,OCCIDENTAL COLLEGE,1600  CAMPUS RD,LOS ANGELES,CA,90041,611310,34.11993,-118.21102,SO2,Sulfur Dioxide,CAP,TON,0.0110878
"LAPEYRE INDUSTRIAL SANDS, INC","LAPEYRE INDUSTRIAL SANDS, INC",31302  ORTEGA HWY,SAN JUAN CAPISTRANO,CA,92675,212322,33.5069,-117.59152,SO2,Sulfur Dioxide,CAP,TON,0.0244597
CREST COATING INC,CREST COATING INC,1351-61 S ALLEC ST,ANAHEIM,CA,92805,332813,33.81538,-117.90046,SO2,Sulfur Dioxide,CAP,TON,0.006301
HELLMAN PROPERTIES LLC,HELLMAN PROPERTIES LLC,ONE  PACIFIC COAST HWY,SEAL BEACH,CA,90740,211130,33.755846,-118.079277,SO2,Sulfur Dioxide,CAP,TON,9.26e-5
FREUND BAKING CO,FREUND BAKING CO,611  SONORA,GLENDALE,CA,91201,311812,34.16236,-118.29258,SO2,Sulfur Dioxide,CAP,TON,0.008695
"LA CO., SANITATION DISTRICT","LA CO., SANITATION DISTRICT",1965  WORKMAN MILL RD,WHITTIER,CA,90601,221320,34.03217,-118.02208,SO2,Sulfur Dioxide,CAP,TON,0.0040356
THE WALT DISNEY COMPANY,THE WALT DISNEY COMPANY,500 S BUENA VISTA ST,BURBANK,CA,91521,512110,34.156382,-118.327168,SO2,Sulfur Dioxide,CAP,TON,0.01019347
MATCHMASTER DYEING & FINISHING INC,MATCHMASTER DYEING & FINISHING INC,3700 S BROADWAY,LOS ANGELES,CA,90007,313310,34.014783,-118.276514,SO2,Sulfur Dioxide,CAP,TON,0.097932
"LA CO., OLIVE VIEW/UCLA MEDICAL CENTER","LA CO., OLIVE VIEW/UCLA MEDICAL CENTER",14445  OLIVE VIEW DR.,SYLMAR,CA,91342,622110,34.32599,-118.44585,SO2,Sulfur Dioxide,CAP,TON,0.5096534
SAFEWAY MILK PLANT,SAFEWAY MILK PLANT,2000 ADAMS AVENUE,SAN LEANDRO,CA,94577,311511,37.723296,-122.190804,SO2,Sulfur Dioxide,CAP,TON,0.015963512
CARGILL SALT,CARGILL SALT,7220 CENTRAL AVE,NEWARK,CA,94560,311942,37.517913,-122.030656,SO2,Sulfur Dioxide,CAP,TON,0.018313773
KAISER PERMANENTE MEDICAL CENTER,KAISER PERMANENTE MEDICAL CENTER,39400 PASEO PADRE PKWY,FREMONT,CA,94538,622110,37.551984,-121.977357,SO2,Sulfur Dioxide,CAP,TON,0.008245125
LEVIN RICHMOND TERMINAL CORPORATION,LEVIN RICHMOND TERMINAL CORPORATION,402 WRIGHT AVENUE,RICHMOND,CA,94804,488310,37.919348,-122.364404,SO2,Sulfur Dioxide,CAP,TON,0.002007769
CITY OF REEDLEY,CITY OF REEDLEY,"REED AVE, SW OF DINUBA AVE",REEDLEY,CA,93654,921190,36.587518,-119.457603,SO2,Sulfur Dioxide,CAP,TON,4.06e-5
FRONTIER CALIFORNIA INC.,FRONTIER CALIFORNIA INC.,30653 GEORGE SMITH RD - GC-584,SQUAW VALLEY,CA,93675,517112,36.728708,-119.25862,SO2,Sulfur Dioxide,CAP,TON,6.61e-6
FRONTIER CALIFORNIA INC.,FRONTIER CALIFORNIA INC.,39846 DUNLAP RD - GC-513,DUNLAP,CA,93621,517112,36.734346,-119.114623,SO2,Sulfur Dioxide,CAP,TON,1.584e-5
NORTH POINT HEALTHCARE CENTER,NORTH POINT HEALTHCARE CENTER,668 E BULLARD,FRESNO,CA,93710,623210,36.822965,-119.773766,SO2,Sulfur Dioxide,CAP,TON,2.44e-6
SIERRA VISTA MALL #552,SIERRA VISTA MALL #552,1050 SHAW AVE,CLOVIS,CA,93612,449210,36.808336,-119.695013,SO2,Sulfur Dioxide,CAP,TON,1.59e-5
CHOOLJIAN BROS PACKING CO,CHOOLJIAN BROS PACKING CO,3192 S INDIANOLA,SANGER,CA,93657,115114,36.684654,-119.58298,SO2,Sulfur Dioxide,CAP,TON,13.427
GREENWAY AUTOBODY,GREENWAY AUTOBODY,1497 N BLACKSTONE,FRESNO,CA,93703,811121,36.764897,-119.786809,SO2,Sulfur Dioxide,CAP,TON,7.97e-4
"MI-RANCHO TORTILLAS, INC","MI-RANCHO TORTILLAS, INC",801 PURVIS AVE,CLOVIS,CA,93612,311211,36.815021,-119.698724,SO2,Sulfur Dioxide,CAP,TON,0.00527
CALIFORNIA NATURAL COLOR,CALIFORNIA NATURAL COLOR,5631 E OLIVE AVE,FRESNO,CA,93727,311421,36.757622,-119.699372,SO2,Sulfur Dioxide,CAP,TON,0.045714
"GAP, INC.","GAP, INC.",3400 N GAP DR,FRESNO,CA,93727,315210,36.783287,-119.707374,SO2,Sulfur Dioxide,CAP,TON,1.26e-4
CITY OF CLOVIS,CITY OF CLOVIS,1233 FIFTH ST (POLICE DEP,CLOVIS,CA,93612,921190,36.824083,-119.695466,SO2,Sulfur Dioxide,CAP,TON,2.41929e-4
AT&T MOBILITY - EH&S,AT&T MOBILITY,40811 S LASSEN AVE- USID 9570,HURON,CA,93234,517111,36.142295,-120.101726,SO2,Sulfur Dioxide,CAP,TON,5.262e-6
AT&T MOBILITY,NEW CINGULAR WIRELESS PCS LLC DBA AT&T,13598 GOLDEN STATE BLVD- USID 9592,KINGSBURG,CA,95827,517112,36.53704,-119.58056500000001,SO2,Sulfur Dioxide,CAP,TON,6.51e-6
AT&T MOBILITY - EH&S,AT&T MOBILITY,13449 E TULARE- USID 9612,SANGER,CA,93657,517112,36.740467,-119.549249,SO2,Sulfur Dioxide,CAP,TON,8.42e-6
AT&T MOBILITY,AT&T MOBILITY,FRESNO COALINGA RD & W PALMER AVE,COALINGA,CA,93210,517112,36.208384,-120.308782,SO2,Sulfur Dioxide,CAP,TON,7.82e-6
NEW CINGULAR WIRELESS PCS LLC DBA AT&T,NEW CINGULAR WIRELESS PCS LLC DBA AT&T,23959 S FRESNO - COALINGA RD - USID 9596,COALINGA,CA,93210,517112,36.356913,-120.193399,SO2,Sulfur Dioxide,CAP,TON,2.128e-5
CLOVIS COMMUNITY HOSPITAL,CLOVIS COMMUNITY HOSPITAL,2755 HERNDON,CLOVIS,CA,93611,622110,36.839069,-119.660766,SO2,Sulfur Dioxide,CAP,TON,0.001038
"PACTIV, LLC","PACTIV,LLC",5370 E HOME AVE,FRESNO,CA,93727,326140,36.7628,-119.7133,SO2,Sulfur Dioxide,CAP,TON,0.00263
CALIFORNIA STATE UNIV FRESNO,CALIF STATE UNIV FRESNO,5241 N MAPLE AVE,FRESNO,CA,93740,611310,36.81349,-119.74543,SO2,Sulfur Dioxide,CAP,TON,0.089320843
"FRESNO VALVES & CASTINGS, INC.","FRESNO VALVES & CASTINGS, INC.",7736 E SPRINGFIELD AVE,SELMA,CA,93662,331529,36.60736,-119.65538,SO2,Sulfur Dioxide,CAP,TON,0.35688
WESTSIDE FARMERS COOP GIN,WESTSIDE FARMERS COOP. GIN,8587 S CONTRA COSTA AVE,TRANQUILITY,CA,93668,115111,36.61459,-120.26611,SO2,Sulfur Dioxide,CAP,TON,0.0172
SATINDER PAL SINGH,SATINDER PAL SINGH,1958 E JENSEN AVE,SANGER,CA,93657,457120,36.707085,-119.564786,SO2,Sulfur Dioxide,CAP,TON,0.00936444
COCOLA BROADCASTING COMPANIES LLC,COCOLA BROADCASTING COMPANIES LLC,41990 RADIO LN,AUBERRY,CA,93602,334220,37.074016,-119.432669,SO2,Sulfur Dioxide,CAP,TON,2.816e-6
DARLING INGREDIENTS INC,DARLING INGREDIENTS INC,795 W BELGRAVIA,FRESNO,CA,93706,311613,36.715971,-119.821327,SO2,Sulfur Dioxide,CAP,TON,0.261811
OLAM SPICES,OLAM SPICES,47641 W NEES AVE,FIREBAUGH,CA,93622,311119,36.848445,-120.647164,SO2,Sulfur Dioxide,CAP,TON,0.7432058
MARQUEZ BROTHERS INTERNATIONAL INC,MARQUEZ BROTHERS INTERNATIONAL INC,612 W 5TH ST,HANFORD,CA,93230,311513,36.323524,-119.653635,SO2,Sulfur Dioxide,CAP,TON,0.592295
J G BOSWELL COMPANY,J G BOSWELL COMPANY,OLD CENTRAL VALLEY HWY,CORCORAN,CA,93212,115111,36.090548,-119.549012,SO2,Sulfur Dioxide,CAP,TON,0.0629
BERKELEY MILLWORK & FURNITURE CO,BERKELEY MILLWORK & FURNITURE CO,2279 POPLAR STREET,OAKLAND,CA,94607,337122,37.817159,-122.287273,SO2,Sulfur Dioxide,CAP,TON,5.142e-5
CERTAINTEED CORPORATION,CERTAINTEED CORPORATION,6400 STEVENSON BLVD,FREMONT,CA,94538,324122,37.51515,-121.99418,SO2,Sulfur Dioxide,CAP,TON,0.158370764
PENTAGON TECHNOLOGIES INC,PENTAGON TECHNOLOGIES INC,21031 ALEXANDER CT,HAYWARD,CA,94545,541511,37.65266,-122.131228,SO2,Sulfur Dioxide,CAP,TON,4.897e-6
MILLS PENINSULA MEDICAL CENTER,MILLS PENINSULA MEDICAL CENTER,1501 TROUSDALE DRIVE,BURLINGAME,CA,94010,622110,37.592227,-122.381695,SO2,Sulfur Dioxide,CAP,TON,0.014763068
BROWNING-FERRIS INDUSTRIES OF CA INC,BROWNING-FERRIS INDUSTRIES OF CA INC,12310 SAN MATEO ROAD,HALF MOON BAY,CA,94019,562212,37.4992,-122.411,SO2,Sulfur Dioxide,CAP,TON,1.62708434
BIMBO BAKERIES USA,BIMBO BAKERIES USA,264 SO SPRUCE AVENUE,SOUTH SAN FRANCISCO,CA,94080,311812,37.644773,-122.420378,SO2,Sulfur Dioxide,CAP,TON,0.014522325
L3HARRIS RANDTRON ANTENNA SYSTEMS,L3HARRIS RANDTRON ANTENNA SYSTEMS,130 CONSTITUTION DRIVE,MENLO PARK,CA,94025,334511,37.481052,-122.17337,SO2,Sulfur Dioxide,CAP,TON,5.028e-6
CYPRESS LAWN CEMETERY ASSOCIATION,CYPRESS LAWN CEMETERY ASSOCIATION,1370 EL CAMINO REAL,COLMA,CA,94014,812210,37.672097,-122.455465,SO2,Sulfur Dioxide,CAP,TON,0.075164046
PACIFIC GAS AND ELECTRIC COMPANY,PACIFIC GAS AND ELECTRIC COMPANY,450 EASTMOOR AVENUE,DALY CITY,CA,94015,221112,37.68221,-122.473321,SO2,Sulfur Dioxide,CAP,TON,6.979e-6
PACIFIC GAS AND ELECTRIC COMPANY,PACIFIC GAS AND ELECTRIC COMPANY,275 INDUSTRIAL ROAD,SAN CARLOS,CA,94070,221112,37.515898,-122.264688,SO2,Sulfur Dioxide,CAP,TON,4.4731e-5
REDLANDS COMMUNITY HOSPITAL,REDLANDS COMMUNITY HOSPITAL,350  TERRACINA BLVD,REDLANDS,CA,92373,622310,34.036545,-117.204972,SO2,Sulfur Dioxide,CAP,TON,0.0159709
SAN FRANCISCO STATE UNIVERSITY,SAN FRANCISCO STATE UNIVERSITY,1600 HOLLOWAY AVENUE,SAN FRANCISCO,CA,94132,611310,37.720187,-122.476139,SO2,Sulfur Dioxide,CAP,TON,0.035834425
US COAST GUARD,US COAST GUARD,YERBA BUENA IS,SAN FRANCISCO,CA,94130,488111,37.80983,-122.36711,SO2,Sulfur Dioxide,CAP,TON,0.001110747
DARLING INGREDIENTS INC,DARLING INGREDIENTS INC,429 AMADOR STREET,SAN FRANCISCO,CA,94124,311613,37.74394,-122.383,SO2,Sulfur Dioxide,CAP,TON,1.262412285
ALSCO,ALSCO,1575 INDIANA STREET,SAN FRANCISCO,CA,94107,812331,37.750824,-122.390333,SO2,Sulfur Dioxide,CAP,TON,0.003698875
JEREMIAHS PICK COFFEE COMPANY,JEREMIAHS PICK COFFEE COMPANY,1495 EVANS AVENUE,SAN FRANCISCO,CA,94124,311920,37.741511,-122.386335,SO2,Sulfur Dioxide,CAP,TON,2.11095e-4
"ONE EMBARCADERO CENTER/BOSTON PROPERTIES, INC","ONE EMBARCADERO CENTER/BOSTON PROPERTIES, INC","1 EMBARCADERO CTR, 43RD FLOOR",SAN FRANCISCO,CA,94111,561720,37.794663,-122.400706,SO2,Sulfur Dioxide,CAP,TON,0.003998455
ARROYO GRANDE COMMUNITY HOSPITAL,ARROYO GRANDE COMMUNITY HOSPITAL,345 SOUTH HALCYON ROAD,ARROYO GRANDE,CA,93420,622110,35.1134,-120.5912,SO2,Sulfur Dioxide,CAP,TON,0.009660426
RAYTHEON COMPANY,RAYTHEON-HOLLISTER (ELECTRONIC WARFARE),6380 HOLLISTER AVENUE,GOLETA,CA,93117,334413,34.4334,-119.8864,SO2,Sulfur Dioxide,CAP,TON,1.2e-5
CABRILLO POWER II LLC,CABRILLO POWER II LLC KEARNY MESA GTS,5459 COMPLEX ST,SAN DIEGO,CA,92123,221122,32.833966,-117.133749,SO2,Sulfur Dioxide,CAP,TON,0.04316253
VISION SYSTEMS INC,VISION SYSTEMS INC,1899 GILLESPIE WY,EL CAJON,CA,92020,237310,32.821984,-116.982123,SO2,Sulfur Dioxide,CAP,TON,0.00365
GOAL LINE LP,GOAL LINE LP,555 NORTH TULIP ST,ESCONDIDO,CA,92025,2211,33.11862,-117.09927,SO2,Sulfur Dioxide,CAP,TON,0.061494
OCEANSIDE CITY OF,OCEANSIDE CITY OF WATER UTILITIES DEP SLRWWTP,3950 RIVER RD N,OCEANSIDE,CA,92058,237120,33.246764,-117.331564,SO2,Sulfur Dioxide,CAP,TON,7.4148e-4
PG&E CUPERTINO SERVICE CENTER,PG&E CUPERTINO SERVICE CENTER,10900 N BLANEY AVENUE,CUPERTINO,CA,95014,221112,37.33401,-122.019467,SO2,Sulfur Dioxide,CAP,TON,3.23e-6
PROTO PAINT,PROTO PAINT,3323 EDWARD AVENUE,SANTA CLARA,CA,95054,332812,37.38329,-121.939385,SO2,Sulfur Dioxide,CAP,TON,4.5923e-5
PENNY WISE GAS - PARADISE STAT,PENNY WISE GAS,937 PARADISE,MODESTO,CA,95350,457120,37.622152,-121.020374,SO2,Sulfur Dioxide,CAP,TON,0.00936444
AMERICAN RENEWABLE POWER,AMERICAN RENEWABLE POWER,100 RAILROAD AVE,LOYALTON,CA,96118,221112,39.670203,-120.239826,SO2,Sulfur Dioxide,CAP,TON,0.04
XO COMMUNICATIONS INC,XO COMMUNICATIONS INC,47923 WARM SPRINGS BLVD,FREMONT,CA,94539,518210,37.475372,-121.922065,SO2,Sulfur Dioxide,CAP,TON,2.65958e-4
L-3 TECHNOLOGIES INC - APPLIED TECHNOLOGIES INC,L-3 TECHNOLOGIES INC - APPLIED TECHNOLOGIES INC,2700 MERCED STREET,SAN LEANDRO,CA,94577,335999,37.69841,-122.1643,SO2,Sulfur Dioxide,CAP,TON,0.00188702
EAST BAY DISCHARGERS AUTHORITY,EAST BAY DISCHARGERS AUTHORITY,2600 GRANT AVENUE,SAN LORENZO,CA,94580,221310,37.669489,-122.156317,SO2,Sulfur Dioxide,CAP,TON,2.1438e-4
KAISER PERMANENTE SAN JOSE MEDICAL CENTER,KAISER PERMANENTE SAN JOSE MEDICAL CENTER,250 HOSPITAL PARKWAY,SAN JOSE,CA,95119,622110,37.239873,-121.80035,SO2,Sulfur Dioxide,CAP,TON,0.006941713
STANFORD HEALTH CARE,STANFORD HEALTH CARE,300 PASTEUR DRIVE,STANFORD,CA,94305,622110,37.432315,-122.178439,SO2,Sulfur Dioxide,CAP,TON,0.06973472
"SFPP, LP","SFPP, LP",2150 KRUSE DRIVE,SAN JOSE,CA,95131,486910,37.389754,-121.911288,SO2,Sulfur Dioxide,CAP,TON,0.8209545
"LOCKHEED MARTIN CORPORATION, MISSILES & SPACE","LOCKHEED MARTIN CORPORATION, MISSILES & SPACE",3251 HANOVER STREET,PALO ALTO,CA,94304,336414,37.408903,-122.144887,SO2,Sulfur Dioxide,CAP,TON,7.726e-6
CITY OF SAN JOSE (SINGLETON ROAD LANDFILL),CITY OF SAN JOSE (SINGLETON ROAD LANDFILL),885 SINGLETON ROAD,SAN JOSE,CA,95111,562211,37.293949,-121.822315,SO2,Sulfur Dioxide,CAP,TON,0.014583702
OAK HILL MEMORIAL PARK & MORTUARY,OAK HILL MEMORIAL PARK & MORTUARY,300 CURTNER AVENUE,SAN JOSE,CA,95125,812210,37.298,-121.869,SO2,Sulfur Dioxide,CAP,TON,0.002615674
EL CAMINO HOSPITAL,EL CAMINO HOSPITAL,2500 GRANT ROAD,MOUNTAIN VIEW,CA,94040,622110,37.366526,-122.077135,SO2,Sulfur Dioxide,CAP,TON,0.041044391
MARIANI PACKING COMPANY,MARIANI PACKING COMPANY,500 CROCKER ROAD,VACAVILLE,CA,95688,311999,38.404556,-121.950403,SO2,Sulfur Dioxide,CAP,TON,0.02
"CAMPBELL SOUP SUPPLY COMPANY, LLC DBA DIXON CANNING CORP.","CAMPBELL SOUP SUPPLY COMPANY, LLC",8380 PEDRICK ROAD,DIXON,CA,95620,311421,38.47138,-121.80368,SO2,Sulfur Dioxide,CAP,TON,0.2
"ALZA CORPORATION, A SUBSIDIARY OF JOHNSON & JOHNSON","ALZA CORPORATION, A SUBSIDIARY OF JOHNSON & JOHNSON",700 EUBANKS DRIVE,VACAVILLE,CA,95688,325412,38.39546,-121.96593,SO2,Sulfur Dioxide,CAP,TON,0.05
BD BIOSCIENCES,BD BIOSCIENCES,2350 QUME DRIVE,SAN JOSE,CA,95131,541720,37.397373,-121.88785,SO2,Sulfur Dioxide,CAP,TON,6.007e-5
CALIFORNIA RESOURCES PRODUCTION CORPORATION,CALIFORNIA RESOURCES PRODUCTION CORPORATION,"SECTION 36, TOWNSHIP 4N, RANGE 2E",SOLANO COUNTY,CA,94571,211130,38.14504,-121.70472,SO2,Sulfur Dioxide,CAP,TON,0.18
MISSION LINEN SERVICE,MISSION LINEN SUPPLY,602 S. WESTERN AVENUE,SANTA MARIA,CA,93458,812331,34.947575,-120.448956,SO2,Sulfur Dioxide,CAP,TON,0.004782
CITY OF SUNNYVALE/ENVIRONMENTAL SERVICES,CITY OF SUNNYVALE/ENVIRONMENTAL SERVICES,301 CARL ROAD,SUNNYVALE,CA,94089,562211,37.41835,-122.01552,SO2,Sulfur Dioxide,CAP,TON,0.014897496
"BELL POWDER COATING, INC.","BELL POWDER COATING, INC.",4747 MCGRATH STREET,VENTURA,CA,93003,332812,34.24894,-119.22617,SO2,Sulfur Dioxide,CAP,TON,0.010512181
VENTURA - CITY OF VENTURA,VENTURA WASTEWATER PLANT,1400 SPINNAKER DRIVE,VENTURA,CA,93002,221320,34.239328,-119.258489,SO2,Sulfur Dioxide,CAP,TON,2.164518254
VENTURA COUNTY MEDICAL CENTER,SANTA PAULA MEMORIAL HOSPITAL,825 NORTH TENTH STREET,SANTA PAULA,CA,93060,622110,34.366448,-119.064993,SO2,Sulfur Dioxide,CAP,TON,0.003276
AMGEN INC.,AMGEN INC.,ONE AMGEN CENTER DRIVE MS 21-2-A,THOUSAND OAKS,CA,91320,325412,34.1901,-118.919735,SO2,Sulfur Dioxide,CAP,TON,0.092659175
"RENAISSANCE PETROLEUM, LLC",NAUMANN DRILL SITE,3214 ETTING ROAD,OXNARD,CA,93033,211120,34.15966,-119.12513,SO2,Sulfur Dioxide,CAP,TON,0.03199734
SILGAN CONTAINER CORP.,SILGAN CONTAINER CORP.,430 DOHERTY AVE,MODESTO,CA,95354,332431,37.633436,-120.950961,SO2,Sulfur Dioxide,CAP,TON,0.001236
SILGAN CONTAINERS MFR CORP,SILGAN CONTAINERS MFR. CORP.,567 RIVERSIDE DR,MODESTO,CA,95354,332431,37.63201,-120.94883,SO2,Sulfur Dioxide,CAP,TON,0.002712
"ASSOCIATED FEED AND SUPPLY, INC","ASSOCIATED FEED AND SUPPLY, INC",5213 W MAIN ST,TURLOCK,CA,95381,311119,37.492821,-120.908647,SO2,Sulfur Dioxide,CAP,TON,0.02747786
PARADISE GASOLINE,PARADISE GASOLINE,901 PARADISE RD,MODESTO,CA,95351,457120,37.62304,-121.01909,SO2,Sulfur Dioxide,CAP,TON,0.00936444
BLUE DIAMOND GROWERS,BLUE DIAMOND GROWERS,4800 SISK RD,MODESTO,CA,95356,115114,37.708988,-121.076312,SO2,Sulfur Dioxide,CAP,TON,0.0015055
SAN FRANCISCO MUNICIPAL RAILWAY,SAN FRANCISCO MUNICIPAL RAILWAY,2301 SAN JOSE AVENUE,SAN FRANCISCO,CA,94112,485111,37.718514,-122.445503,SO2,Sulfur Dioxide,CAP,TON,5.8325e-5
CENTRAL SHOPS/CITY & COUNTY OF SAN FRANCISCO,CENTRAL SHOPS/CITY & COUNTY OF SAN FRANCISCO,1800 JERROLD AVENUE,SAN FRANCISCO,CA,94124,921120,37.741898,-122.393266,SO2,Sulfur Dioxide,CAP,TON,9.97277e-4
R A JENSON MANUFACTURING COMPANY,R A JENSON MANUFACTURING COMPANY,1337 VAN DYKE AVENUE,SAN FRANCISCO,CA,94124,337110,37.724405,-122.386589,SO2,Sulfur Dioxide,CAP,TON,2.0308e-5
